[
    {
        "city": "Toronto",
        "city_ascii": "Toronto",
        "density": 4334.4,
        "id": "1124279679",
        "lat": "43.7417",
        "lng": "-79.3733",
        "population": 5429520.0,
        "postal": "M5T M5V M5P M5S M5R M5E M5G M5A M5C M5B M5M M5N M5H M5J M4X M4Y M4R M4S M4P M4V M4W M4T M4J M4K M4H M4N M4L M4M M4B M4C M4A M4G M4E M3N M3M M3L M3K M3J M3H M3C M3B M3A M2P M2R M2L M2M M2N M2H M2J M2K M1C M1B M1E M1G M1H M1K M1J M1M M1L M1N M1P M1S M1R M1T M1W M1V M1X M9P M9R M9W M9V M9M M9L M9N M9A M9C M9B M6P M6R M6S M6A M6B M6C M6E M6G M6H M6J M6K M6L M6M M6N M8Z M8X M8Y M8V M8W",
        "province_id": "ON",
        "province_name": "Ontario",
        "ranking": 1,
        "timezone": "America/Toronto"
    },
    {
        "city": "Montréal",
        "city_ascii": "Montreal",
        "density": 3889.0,
        "id": "1124586170",
        "lat": "45.5089",
        "lng": "-73.5617",
        "population": 3519600.0,
        "postal": "H1X H1Y H1Z H1P H1R H1S H1T H1V H1W H1H H1J H1K H1L H1M H1N H1A H1B H1C H1E H1G H2Y H2X H2Z H2T H2W H2V H2P H2S H2R H2M H2L H2N H2H H2K H2J H2E H2G H2A H2C H2B H3B H3C H3A H3G H3E H3J H3K H3H H3N H3L H3M H3R H3S H3V H3W H3T H3X H4G H4E H4C H4B H4A H4N H4M H4L H4K H4J H4H H4V H4S H4R H4P H8N H8S H8R H8P H8T H8Z H8Y H9A H9C H9E H9H H9J H9K",
        "province_id": "QC",
        "province_name": "Quebec",
        "ranking": 1,
        "timezone": "America/Montreal"
    },
    {
        "city": "Vancouver",
        "city_ascii": "Vancouver",
        "density": 5492.6,
        "id": "1124825478",
        "lat": "49.2500",
        "lng": "-123.1000",
        "population": 2264820.0,
        "postal": "V6Z V6S V6R V6P V6N V6M V6L V6K V6J V6H V6G V6E V6C V6B V6A V5S V5P V5Z V5N V5L V5M V5K V5V V5W V5T V5R V5X V5Y",
        "province_id": "BC",
        "province_name": "British Columbia",
        "ranking": 1,
        "timezone": "America/Vancouver"
    },
    {
        "city": "Calgary",
        "city_ascii": "Calgary",
        "density": 1501.1,
        "id": "1124690423",
        "lat": "51.0500",
        "lng": "-114.0667",
        "population": 1239220.0,
        "postal": "T1Y T2H T2K T2J T2L T2N T2A T2C T2B T2E T2G T2Y T2X T2Z T2S T2R T2T T2V T3N T3L T3M T3J T3K T3H T3G T3E T3B T3C T3A T3R T3S T3P",
        "province_id": "AB",
        "province_name": "Alberta",
        "ranking": 1,
        "timezone": "America/Edmonton"
    },
    {
        "city": "Edmonton",
        "city_ascii": "Edmonton",
        "density": 1360.9,
        "id": "1124290735",
        "lat": "53.5344",
        "lng": "-113.4903",
        "population": 1062640.0,
        "postal": "T5X T5Y T5Z T5P T5R T5S T5T T5V T5W T5H T5J T5K T5L T5M T5N T5A T5B T5C T5E T5G T6X T6T T6W T6V T6P T6S T6R T6M T6L T6H T6K T6J T6E T6G T6A T6C T6B",
        "province_id": "AB",
        "province_name": "Alberta",
        "ranking": 1,
        "timezone": "America/Edmonton"
    },
    {
        "city": "Ottawa",
        "city_ascii": "Ottawa",
        "density": 334.0,
        "id": "1124399363",
        "lat": "45.4247",
        "lng": "-75.6950",
        "population": 989567.0,
        "postal": "K4P K4M K4A K4B K4C K7S K1S K1R K1P K1W K1V K1T K1Z K1Y K1X K1C K1B K1G K1E K1K K1J K1H K1N K1M K1L K0A K2R K2S K2P K2V K2W K2T K2J K2K K2H K2L K2M K2B K2C K2A K2G K2E",
        "province_id": "ON",
        "province_name": "Ontario",
        "ranking": 1,
        "timezone": "America/Montreal"
    },
    {
        "city": "Mississauga",
        "city_ascii": "Mississauga",
        "density": 2467.6,
        "id": "1124112672",
        "lat": "43.6000",
        "lng": "-79.6500",
        "population": 721599.0,
        "postal": "L4W L4V L4T L4Z L4Y L4X L5R L5V L5W L5A L5B L5C L5E L5G L5H L5J L5K L5L L5M L5N",
        "province_id": "ON",
        "province_name": "Ontario",
        "ranking": 2,
        "timezone": "America/Toronto"
    },
    {
        "city": "Winnipeg",
        "city_ascii": "Winnipeg",
        "density": 1430.0,
        "id": "1124224963",
        "lat": "49.8844",
        "lng": "-97.1464",
        "population": 705244.0,
        "postal": "R2N R2M R2L R2K R2J R2H R2G R2C R2Y R2X R2W R2V R2R R2P R3L R3M R3N R3H R3J R3K R3E R3G R3A R3B R3X R3Y R3T R3V R3W R3P R3R R3S",
        "province_id": "MB",
        "province_name": "Manitoba",
        "ranking": 1,
        "timezone": "America/Winnipeg"
    },
    {
        "city": "Quebec City",
        "city_ascii": "Quebec City",
        "density": 1173.2,
        "id": "1124823933",
        "lat": "46.8139",
        "lng": "-71.2081",
        "population": 705103.0,
        "postal": "G1N G1M G1L G1K G1J G1H G1G G1E G1C G1B G1Y G1X G1W G1V G1T G1S G1R G1P G3E G3G G3K G3J G2G G2E G2B G2C G2A G2N G2L G2M G2J G2K",
        "province_id": "QC",
        "province_name": "Quebec",
        "ranking": 1,
        "timezone": "America/Montreal"
    },
    {
        "city": "Hamilton",
        "city_ascii": "Hamilton",
        "density": 480.6,
        "id": "1124567288",
        "lat": "43.2567",
        "lng": "-79.8692",
        "population": 693645.0,
        "postal": "L0R L0P L8W L8V L8T L8S L8R L8P L8G L8E L8N L8M L8L L8K L8J L8H L9G L9A L9B L9C L9H L9K N1R",
        "province_id": "ON",
        "province_name": "Ontario",
        "ranking": 2,
        "timezone": "America/Toronto"
    },
    {
        "city": "Brampton",
        "city_ascii": "Brampton",
        "density": 2228.7,
        "id": "1124625989",
        "lat": "43.6833",
        "lng": "-79.7667",
        "population": 593638.0,
        "postal": "L7A L6T L6W L6V L6P L6S L6R L6Y L6X L6Z",
        "province_id": "ON",
        "province_name": "Ontario",
        "ranking": 2,
        "timezone": "America/Toronto"
    },
    {
        "city": "Surrey",
        "city_ascii": "Surrey",
        "density": 1636.8,
        "id": "1124001454",
        "lat": "49.1900",
        "lng": "-122.8489",
        "population": 517887.0,
        "postal": "V4A V4N V4P V3R V3S V3T V3V V3W V3X V3Z",
        "province_id": "BC",
        "province_name": "British Columbia",
        "ranking": 2,
        "timezone": "America/Vancouver"
    },
    {
        "city": "Kitchener",
        "city_ascii": "Kitchener",
        "density": 3433.5,
        "id": "1124158530",
        "lat": "43.4186",
        "lng": "-80.4728",
        "population": 470015.0,
        "postal": "N2K N2H N2N N2M N2C N2B N2A N2G N2E N2R N2P",
        "province_id": "ON",
        "province_name": "Ontario",
        "ranking": 1,
        "timezone": "America/Toronto"
    },
    {
        "city": "Laval",
        "city_ascii": "Laval",
        "density": 1710.9,
        "id": "1124922301",
        "lat": "45.5833",
        "lng": "-73.7500",
        "population": 422993.0,
        "postal": "H7N H7L H7M H7J H7K H7H H7G H7E H7B H7C H7A H7X H7Y H7V H7W H7T H7R H7S H7P",
        "province_id": "QC",
        "province_name": "Quebec",
        "ranking": 2,
        "timezone": "America/Montreal"
    },
    {
        "city": "Halifax",
        "city_ascii": "Halifax",
        "density": 73.4,
        "id": "1124130981",
        "lat": "44.6475",
        "lng": "-63.5906",
        "population": 403131.0,
        "postal": "B2Z B2Y B2X B2W B2V B2T B2S B2R B3T B3V B3P B3R B3L B3M B3N B3H B3J B3K B3E B3G B3A B3B B0J B3Z B3S B4E B4G B4A B4C B4B B0N",
        "province_id": "NS",
        "province_name": "Nova Scotia",
        "ranking": 1,
        "timezone": "America/Halifax"
    },
    {
        "city": "London",
        "city_ascii": "London",
        "density": 913.1,
        "id": "1124469960",
        "lat": "42.9836",
        "lng": "-81.2497",
        "population": 383822.0,
        "postal": "N5Z N5X N5Y N5V N5W N6A N6P N6G N6E N6C N6N N6L N6J N6H N6B N6M N6K",
        "province_id": "ON",
        "province_name": "Ontario",
        "ranking": 2,
        "timezone": "America/Toronto"
    },
    {
        "city": "Victoria",
        "city_ascii": "Victoria",
        "density": 4406.3,
        "id": "1124147219",
        "lat": "48.4283",
        "lng": "-123.3647",
        "population": 335696.0,
        "postal": "V8T V8W V8S V8R V9A V8V",
        "province_id": "BC",
        "province_name": "British Columbia",
        "ranking": 1,
        "timezone": "America/Vancouver"
    },
    {
        "city": "Markham",
        "city_ascii": "Markham",
        "density": 1549.2,
        "id": "1124272698",
        "lat": "43.8767",
        "lng": "-79.2633",
        "population": 328966.0,
        "postal": "L3T L3R L3P L3S L6E L6G L6C L6B",
        "province_id": "ON",
        "province_name": "Ontario",
        "ranking": 2,
        "timezone": "America/Toronto"
    },
    {
        "city": "St. Catharines",
        "city_ascii": "St. Catharines",
        "density": 1384.8,
        "id": "1124140229",
        "lat": "43.1833",
        "lng": "-79.2333",
        "population": 309319.0,
        "postal": "L2M L2N L2P L2S L2R L2T L2W",
        "province_id": "ON",
        "province_name": "Ontario",
        "ranking": 2,
        "timezone": "America/Toronto"
    },
    {
        "city": "Niagara Falls",
        "city_ascii": "Niagara Falls",
        "density": 419.9,
        "id": "1124704011",
        "lat": "43.0600",
        "lng": "-79.1067",
        "population": 308596.0,
        "postal": "L2E L2G L2H L2J L3B",
        "province_id": "ON",
        "province_name": "Ontario",
        "ranking": 2,
        "timezone": "America/Toronto"
    },
    {
        "city": "Vaughan",
        "city_ascii": "Vaughan",
        "density": 1119.4,
        "id": "1124000141",
        "lat": "43.8333",
        "lng": "-79.5000",
        "population": 306233.0,
        "postal": "L0J L4K L4J L4H L4L L6A",
        "province_id": "ON",
        "province_name": "Ontario",
        "ranking": 2,
        "timezone": "America/Toronto"
    },
    {
        "city": "Gatineau",
        "city_ascii": "Gatineau",
        "density": 773.7,
        "id": "1124722129",
        "lat": "45.4833",
        "lng": "-75.6500",
        "population": 276245.0,
        "postal": "J8P J8R J8T J8Y J8X J8Z J8M J9J J9H J9A",
        "province_id": "QC",
        "province_name": "Quebec",
        "ranking": 2,
        "timezone": "America/Montreal"
    },
    {
        "city": "Windsor",
        "city_ascii": "Windsor",
        "density": 1484.3,
        "id": "1124261024",
        "lat": "42.2833",
        "lng": "-83.0000",
        "population": 276165.0,
        "postal": "N8T N8W N8P N8S N8R N8Y N8X N9J N9B N9C N9A N9G N9E N0R",
        "province_id": "ON",
        "province_name": "Ontario",
        "ranking": 2,
        "timezone": "America/Toronto"
    },
    {
        "city": "Saskatoon",
        "city_ascii": "Saskatoon",
        "density": 1080.0,
        "id": "1124612546",
        "lat": "52.1333",
        "lng": "-106.6833",
        "population": 246376.0,
        "postal": "S7H S7K S7J S7M S7L S7N S7S S7R S7W S7V",
        "province_id": "SK",
        "province_name": "Saskatchewan",
        "ranking": 2,
        "timezone": "America/Regina"
    },
    {
        "city": "Longueuil",
        "city_ascii": "Longueuil",
        "density": 2002.0,
        "id": "1124122753",
        "lat": "45.5333",
        "lng": "-73.5167",
        "population": 239700.0,
        "postal": "J4T J4V J4P J4R J4M J4L J4N J4H J4K J4J J4G J3Y J3Z",
        "province_id": "QC",
        "province_name": "Quebec",
        "ranking": 2,
        "timezone": "America/Montreal"
    },
    {
        "city": "Burnaby",
        "city_ascii": "Burnaby",
        "density": 2568.7,
        "id": "1124817304",
        "lat": "49.2667",
        "lng": "-122.9667",
        "population": 232755.0,
        "postal": "V5B V5G V5E V5C V5J V5H V5A V3J V3N",
        "province_id": "BC",
        "province_name": "British Columbia",
        "ranking": 2,
        "timezone": "America/Vancouver"
    },
    {
        "city": "Regina",
        "city_ascii": "Regina",
        "density": 1195.2,
        "id": "1124342541",
        "lat": "50.4547",
        "lng": "-104.6067",
        "population": 215106.0,
        "postal": "S4T S4V S4W S4R S4S S4X S4Y S4Z",
        "province_id": "SK",
        "province_name": "Saskatchewan",
        "ranking": 2,
        "timezone": "America/Regina"
    },
    {
        "city": "Richmond",
        "city_ascii": "Richmond",
        "density": 1534.1,
        "id": "1124121940",
        "lat": "49.1667",
        "lng": "-123.1333",
        "population": 198309.0,
        "postal": "V6Y V6X V6W V6V V7E V7A V7B V7C",
        "province_id": "BC",
        "province_name": "British Columbia",
        "ranking": 2,
        "timezone": "America/Vancouver"
    },
    {
        "city": "Richmond Hill",
        "city_ascii": "Richmond Hill",
        "density": 1928.8,
        "id": "1124364273",
        "lat": "43.8667",
        "lng": "-79.4333",
        "population": 195022.0,
        "postal": "L4S L4C L4B L4E",
        "province_id": "ON",
        "province_name": "Ontario",
        "ranking": 2,
        "timezone": "America/Toronto"
    },
    {
        "city": "Oakville",
        "city_ascii": "Oakville",
        "density": 1314.2,
        "id": "1124080468",
        "lat": "43.4500",
        "lng": "-79.6833",
        "population": 193832.0,
        "postal": "L6M L6L L6H L6K L6J",
        "province_id": "ON",
        "province_name": "Ontario",
        "ranking": 2,
        "timezone": "America/Toronto"
    },
    {
        "city": "Burlington",
        "city_ascii": "Burlington",
        "density": 946.8,
        "id": "1124955083",
        "lat": "43.3167",
        "lng": "-79.8000",
        "population": 183314.0,
        "postal": "L7R L7S L7P L7T L7N L7L L7M",
        "province_id": "ON",
        "province_name": "Ontario",
        "ranking": 2,
        "timezone": "America/Toronto"
    },
    {
        "city": "Barrie",
        "city_ascii": "Barrie",
        "density": 1428.0,
        "id": "1124340223",
        "lat": "44.3711",
        "lng": "-79.6769",
        "population": 172657.0,
        "postal": "L9J L4N L4M",
        "province_id": "ON",
        "province_name": "Ontario",
        "ranking": 2,
        "timezone": "America/Toronto"
    },
    {
        "city": "Oshawa",
        "city_ascii": "Oshawa",
        "density": 1027.0,
        "id": "1124541904",
        "lat": "43.9000",
        "lng": "-78.8500",
        "population": 166000.0,
        "postal": "L1L L1H L1J L1K L1G",
        "province_id": "ON",
        "province_name": "Ontario",
        "ranking": 2,
        "timezone": "America/Toronto"
    },
    {
        "city": "Sherbrooke",
        "city_ascii": "Sherbrooke",
        "density": 456.0,
        "id": "1124559506",
        "lat": "45.4000",
        "lng": "-71.9000",
        "population": 161323.0,
        "postal": "J1N J1L J1M J1J J1K J1H J1G J1E J1C J1R",
        "province_id": "QC",
        "province_name": "Quebec",
        "ranking": 2,
        "timezone": "America/Montreal"
    },
    {
        "city": "Saguenay",
        "city_ascii": "Saguenay",
        "density": 128.5,
        "id": "1124001930",
        "lat": "48.4167",
        "lng": "-71.0667",
        "population": 144746.0,
        "postal": "G8A G7N G7H G7K G7T G7Z G7G G7B G7J G7P G7S G7Y G7X",
        "province_id": "QC",
        "province_name": "Quebec",
        "ranking": 2,
        "timezone": "America/Montreal"
    },
    {
        "city": "Lévis",
        "city_ascii": "Levis",
        "density": 319.4,
        "id": "1124958950",
        "lat": "46.8000",
        "lng": "-71.1833",
        "population": 143414.0,
        "postal": "G7A G6J G6K G6C G6Z G6X G6Y G6V G6W",
        "province_id": "QC",
        "province_name": "Quebec",
        "ranking": 2,
        "timezone": "America/Montreal"
    },
    {
        "city": "Kelowna",
        "city_ascii": "Kelowna",
        "density": 601.3,
        "id": "1124080626",
        "lat": "49.8881",
        "lng": "-119.4956",
        "population": 142146.0,
        "postal": "V1X V1Y V1P V1W V1V",
        "province_id": "BC",
        "province_name": "British Columbia",
        "ranking": 2,
        "timezone": "America/Vancouver"
    },
    {
        "city": "Abbotsford",
        "city_ascii": "Abbotsford",
        "density": 376.5,
        "id": "1124808029",
        "lat": "49.0500",
        "lng": "-122.3167",
        "population": 141397.0,
        "postal": "V4X V2S V2T V3G",
        "province_id": "BC",
        "province_name": "British Columbia",
        "ranking": 2,
        "timezone": "America/Vancouver"
    },
    {
        "city": "Coquitlam",
        "city_ascii": "Coquitlam",
        "density": 1138.9,
        "id": "1124000500",
        "lat": "49.2839",
        "lng": "-122.7919",
        "population": 139284.0,
        "postal": "V3B V3C V3E V3J V3K",
        "province_id": "BC",
        "province_name": "British Columbia",
        "ranking": 2,
        "timezone": "America/Vancouver"
    },
    {
        "city": "Trois-Rivières",
        "city_ascii": "Trois-Rivieres",
        "density": 1581.2,
        "id": "1124407487",
        "lat": "46.3500",
        "lng": "-72.5500",
        "population": 134413.0,
        "postal": "G9C G9B G9A G8T G8V G8W G8Y G8Z",
        "province_id": "QC",
        "province_name": "Quebec",
        "ranking": 2,
        "timezone": "America/Montreal"
    },
    {
        "city": "Guelph",
        "city_ascii": "Guelph",
        "density": 1511.1,
        "id": "1124968815",
        "lat": "43.5500",
        "lng": "-80.2500",
        "population": 131794.0,
        "postal": "N1C N1G N1E N1K N1H N1L",
        "province_id": "ON",
        "province_name": "Ontario",
        "ranking": 2,
        "timezone": "America/Toronto"
    },
    {
        "city": "Cambridge",
        "city_ascii": "Cambridge",
        "density": 1149.6,
        "id": "1124113576",
        "lat": "43.3972",
        "lng": "-80.3114",
        "population": 129920.0,
        "postal": "N3H N3C N3E N1R N1S N1P N1T",
        "province_id": "ON",
        "province_name": "Ontario",
        "ranking": 2,
        "timezone": "America/Toronto"
    },
    {
        "city": "Whitby",
        "city_ascii": "Whitby",
        "density": 876.1,
        "id": "1124112077",
        "lat": "43.8833",
        "lng": "-78.9417",
        "population": 128377.0,
        "postal": "L0B L1P L1R L1M L1N",
        "province_id": "ON",
        "province_name": "Ontario",
        "ranking": 2,
        "timezone": "America/Toronto"
    },
    {
        "city": "Ajax",
        "city_ascii": "Ajax",
        "density": 1634.2,
        "id": "1124382916",
        "lat": "43.8583",
        "lng": "-79.0364",
        "population": 119677.0,
        "postal": "L1Z L1T L1S",
        "province_id": "ON",
        "province_name": "Ontario",
        "ranking": 2,
        "timezone": "America/Toronto"
    },
    {
        "city": "Langley",
        "city_ascii": "Langley",
        "density": 380.8,
        "id": "1124000480",
        "lat": "49.1044",
        "lng": "-122.5827",
        "population": 117285.0,
        "postal": "V1M V4W V2Z V2Y V3A",
        "province_id": "BC",
        "province_name": "British Columbia",
        "ranking": 2,
        "timezone": "America/Vancouver"
    },
    {
        "city": "Saanich",
        "city_ascii": "Saanich",
        "density": 1099.9,
        "id": "1124000949",
        "lat": "48.4840",
        "lng": "-123.3810",
        "population": 114148.0,
        "postal": "V8N V8X V8Z V8P V8R V9A V9E V8Y",
        "province_id": "BC",
        "province_name": "British Columbia",
        "ranking": 2,
        "timezone": "America/Vancouver"
    },
    {
        "city": "Terrebonne",
        "city_ascii": "Terrebonne",
        "density": 687.1,
        "id": "1124993674",
        "lat": "45.7000",
        "lng": "-73.6333",
        "population": 111575.0,
        "postal": "J6Y J6V J7M J6X J6W",
        "province_id": "QC",
        "province_name": "Quebec",
        "ranking": 2,
        "timezone": "America/Montreal"
    },
    {
        "city": "Milton",
        "city_ascii": "Milton",
        "density": 230.11,
        "id": "1124001426",
        "lat": "43.5083",
        "lng": "-79.8833",
        "population": 110128.0,
        "postal": "L7J L0P L9T",
        "province_id": "ON",
        "province_name": "Ontario",
        "ranking": 2,
        "timezone": "America/Toronto"
    },
    {
        "city": "St. John's",
        "city_ascii": "St. John's",
        "density": 244.1,
        "id": "1124741456",
        "lat": "47.4817",
        "lng": "-52.7971",
        "population": 108860.0,
        "postal": "A1H A1S A1E A1G A1A A1C A1B",
        "province_id": "NL",
        "province_name": "Newfoundland and Labrador",
        "ranking": 2,
        "timezone": "America/St_Johns"
    },
    {
        "city": "Moncton",
        "city_ascii": "Moncton",
        "density": 506.0,
        "id": "1124521303",
        "lat": "46.1328",
        "lng": "-64.7714",
        "population": 108620.0,
        "postal": "E1H E1A E1C E1E E1G",
        "province_id": "NB",
        "province_name": "New Brunswick",
        "ranking": 2,
        "timezone": "America/Moncton"
    },
    {
        "city": "Thunder Bay",
        "city_ascii": "Thunder Bay",
        "density": 330.1,
        "id": "1124398712",
        "lat": "48.3822",
        "lng": "-89.2461",
        "population": 107909.0,
        "postal": "P7G P7E P7B P7C P7J P7K",
        "province_id": "ON",
        "province_name": "Ontario",
        "ranking": 2,
        "timezone": "America/Thunder_Bay"
    },
    {
        "city": "Dieppe",
        "city_ascii": "Dieppe",
        "density": 469.6,
        "id": "1124195431",
        "lat": "46.0989",
        "lng": "-64.7242",
        "population": 107068.0,
        "postal": "E1A",
        "province_id": "NB",
        "province_name": "New Brunswick",
        "ranking": 2,
        "timezone": "America/Moncton"
    },
    {
        "city": "Waterloo",
        "city_ascii": "Waterloo",
        "density": 1520.7,
        "id": "1124321390",
        "lat": "43.4667",
        "lng": "-80.5167",
        "population": 104986.0,
        "postal": "N2K N2J N2L N2V N2T",
        "province_id": "ON",
        "province_name": "Ontario",
        "ranking": 2,
        "timezone": "America/Toronto"
    },
    {
        "city": "Delta",
        "city_ascii": "Delta",
        "density": 567.4,
        "id": "1124001200",
        "lat": "49.0847",
        "lng": "-123.0586",
        "population": 102238.0,
        "postal": "V4C V4E V4G V4K V4M V4L",
        "province_id": "BC",
        "province_name": "British Columbia",
        "ranking": 2,
        "timezone": "America/Vancouver"
    },
    {
        "city": "Chatham",
        "city_ascii": "Chatham",
        "density": 41.4,
        "id": "1124393373",
        "lat": "42.4229",
        "lng": "-82.1324",
        "population": 101647.0,
        "postal": "N8A N0P N7L N7M",
        "province_id": "ON",
        "province_name": "Ontario",
        "ranking": 2,
        "timezone": "America/Toronto"
    },
    {
        "city": "Red Deer",
        "city_ascii": "Red Deer",
        "density": 958.8,
        "id": "1124404130",
        "lat": "52.2681",
        "lng": "-113.8111",
        "population": 100418.0,
        "postal": "T4R T4P T4N",
        "province_id": "AB",
        "province_name": "Alberta",
        "ranking": 2,
        "timezone": "America/Edmonton"
    },
    {
        "city": "Kamloops",
        "city_ascii": "Kamloops",
        "density": 301.7,
        "id": "1124735582",
        "lat": "50.6761",
        "lng": "-120.3408",
        "population": 100046.0,
        "postal": "V1S V2C V2B V2E",
        "province_id": "BC",
        "province_name": "British Columbia",
        "ranking": 2,
        "timezone": "America/Vancouver"
    },
    {
        "city": "Brantford",
        "city_ascii": "Brantford",
        "density": 1345.9,
        "id": "1124737006",
        "lat": "43.1667",
        "lng": "-80.2500",
        "population": 97496.0,
        "postal": "N3P N3R N3S N3T N3V",
        "province_id": "ON",
        "province_name": "Ontario",
        "ranking": 3,
        "timezone": "America/Toronto"
    },
    {
        "city": "Cape Breton",
        "city_ascii": "Cape Breton",
        "density": 38.8,
        "id": "1124000383",
        "lat": "46.1389",
        "lng": "-60.1931",
        "population": 94285.0,
        "postal": "B2A B1S B1V B1G B1E B1B B1C B1A B1N B1L B1M B1J B1H B1T B1R B1P B1Y B1K",
        "province_id": "NS",
        "province_name": "Nova Scotia",
        "ranking": 3,
        "timezone": "America/Glace_Bay"
    },
    {
        "city": "Lethbridge",
        "city_ascii": "Lethbridge",
        "density": 759.5,
        "id": "1124321200",
        "lat": "49.6942",
        "lng": "-112.8328",
        "population": 92729.0,
        "postal": "T1H T1J T1K",
        "province_id": "AB",
        "province_name": "Alberta",
        "ranking": 3,
        "timezone": "America/Edmonton"
    },
    {
        "city": "Saint-Jean-sur-Richelieu",
        "city_ascii": "Saint-Jean-sur-Richelieu",
        "density": 419.7,
        "id": "1124278447",
        "lat": "45.3167",
        "lng": "-73.2667",
        "population": 92394.0,
        "postal": "J2W J2Y J2X J3A J3B",
        "province_id": "QC",
        "province_name": "Quebec",
        "ranking": 3,
        "timezone": "America/Montreal"
    },
    {
        "city": "Clarington",
        "city_ascii": "Clarington",
        "density": 138.3,
        "id": "1124000882",
        "lat": "43.9350",
        "lng": "-78.6083",
        "population": 92013.0,
        "postal": "L0B L0A L1E L1B L1C",
        "province_id": "ON",
        "province_name": "Ontario",
        "ranking": 3,
        "timezone": "America/Toronto"
    },
    {
        "city": "Pickering",
        "city_ascii": "Pickering",
        "density": 383.1,
        "id": "1124781814",
        "lat": "43.8354",
        "lng": "-79.0890",
        "population": 91771.0,
        "postal": "L0H L0B L1X L1Y L1V L1W",
        "province_id": "ON",
        "province_name": "Ontario",
        "ranking": 3,
        "timezone": "America/Toronto"
    },
    {
        "city": "Nanaimo",
        "city_ascii": "Nanaimo",
        "density": 918.0,
        "id": "1124623893",
        "lat": "49.1642",
        "lng": "-123.9364",
        "population": 90504.0,
        "postal": "V9R V9S V9V V9T",
        "province_id": "BC",
        "province_name": "British Columbia",
        "ranking": 3,
        "timezone": "America/Vancouver"
    },
    {
        "city": "Sudbury",
        "city_ascii": "Sudbury",
        "density": 49.7,
        "id": "1124539524",
        "lat": "46.4900",
        "lng": "-81.0100",
        "population": 88054.0,
        "postal": "P0M P3N P3L P3B P3C P3A P3G P3Y P3P",
        "province_id": "ON",
        "province_name": "Ontario",
        "ranking": 3,
        "timezone": "America/Toronto"
    },
    {
        "city": "North Vancouver",
        "city_ascii": "North Vancouver",
        "density": 534.6,
        "id": "1124000146",
        "lat": "49.3641",
        "lng": "-123.0066",
        "population": 85935.0,
        "postal": "V7P V7R V7L V7N V7H V7J V7K V7G",
        "province_id": "BC",
        "province_name": "British Columbia",
        "ranking": 3,
        "timezone": "America/Vancouver"
    },
    {
        "city": "Brossard",
        "city_ascii": "Brossard",
        "density": 1896.0,
        "id": "1124655166",
        "lat": "45.4667",
        "lng": "-73.4500",
        "population": 85721.0,
        "postal": "J4Y J4X J4Z J4W",
        "province_id": "QC",
        "province_name": "Quebec",
        "ranking": 3,
        "timezone": "America/Montreal"
    },
    {
        "city": "Repentigny",
        "city_ascii": "Repentigny",
        "density": 1395.4,
        "id": "1124379778",
        "lat": "45.7333",
        "lng": "-73.4667",
        "population": 84965.0,
        "postal": "J6A J5Z J5Y",
        "province_id": "QC",
        "province_name": "Quebec",
        "ranking": 3,
        "timezone": "America/Montreal"
    },
    {
        "city": "Newmarket",
        "city_ascii": "Newmarket",
        "density": 2190.5,
        "id": "1124400266",
        "lat": "44.0500",
        "lng": "-79.4667",
        "population": 84224.0,
        "postal": "L3X L3Y",
        "province_id": "ON",
        "province_name": "Ontario",
        "ranking": 2,
        "timezone": "America/Toronto"
    },
    {
        "city": "Chilliwack",
        "city_ascii": "Chilliwack",
        "density": 320.2,
        "id": "1124531262",
        "lat": "49.1577",
        "lng": "-121.9509",
        "population": 83788.0,
        "postal": "V4Z V2R V2P",
        "province_id": "BC",
        "province_name": "British Columbia",
        "ranking": 3,
        "timezone": "America/Vancouver"
    },
    {
        "city": "White Rock",
        "city_ascii": "White Rock",
        "density": 3893.1,
        "id": "1124260555",
        "lat": "49.0250",
        "lng": "-122.8028",
        "population": 82368.0,
        "postal": "V4B",
        "province_id": "BC",
        "province_name": "British Columbia",
        "ranking": 2,
        "timezone": "America/Vancouver"
    },
    {
        "city": "Maple Ridge",
        "city_ascii": "Maple Ridge",
        "density": 308.3,
        "id": "1124001699",
        "lat": "49.2167",
        "lng": "-122.6000",
        "population": 82256.0,
        "postal": "V4R V2W V2X",
        "province_id": "BC",
        "province_name": "British Columbia",
        "ranking": 3,
        "timezone": "America/Vancouver"
    },
    {
        "city": "Peterborough",
        "city_ascii": "Peterborough",
        "density": 1261.2,
        "id": "1124440356",
        "lat": "44.3000",
        "lng": "-78.3167",
        "population": 82094.0,
        "postal": "K9K K9J K9H K9L",
        "province_id": "ON",
        "province_name": "Ontario",
        "ranking": 3,
        "timezone": "America/Toronto"
    },
    {
        "city": "Kawartha Lakes",
        "city_ascii": "Kawartha Lakes",
        "density": 24.5,
        "id": "1124000852",
        "lat": "44.3500",
        "lng": "-78.7500",
        "population": 75423.0,
        "postal": "L0K L0B L0A K9V K0M",
        "province_id": "ON",
        "province_name": "Ontario",
        "ranking": 3,
        "timezone": "America/Toronto"
    },
    {
        "city": "Prince George",
        "city_ascii": "Prince George",
        "density": 232.5,
        "id": "1124733292",
        "lat": "53.9169",
        "lng": "-122.7494",
        "population": 74003.0,
        "postal": "V2K V2N V2M V2L",
        "province_id": "BC",
        "province_name": "British Columbia",
        "ranking": 3,
        "timezone": "America/Vancouver"
    },
    {
        "city": "Sault Ste. Marie",
        "city_ascii": "Sault Ste. Marie",
        "density": 328.6,
        "id": "1124810690",
        "lat": "46.5333",
        "lng": "-84.3500",
        "population": 73368.0,
        "postal": "P6A P6C P6B",
        "province_id": "ON",
        "province_name": "Ontario",
        "ranking": 3,
        "timezone": "America/Toronto"
    },
    {
        "city": "Sarnia",
        "city_ascii": "Sarnia",
        "density": 434.3,
        "id": "1124509835",
        "lat": "42.9994",
        "lng": "-82.3089",
        "population": 71594.0,
        "postal": "N7V N7W N7S N7T N7X",
        "province_id": "ON",
        "province_name": "Ontario",
        "ranking": 3,
        "timezone": "America/Toronto"
    },
    {
        "city": "Wood Buffalo",
        "city_ascii": "Wood Buffalo",
        "density": 1.2,
        "id": "1124001123",
        "lat": "57.6042",
        "lng": "-111.3284",
        "population": 71589.0,
        "postal": "T9H T9J T9K T0P",
        "province_id": "AB",
        "province_name": "Alberta",
        "ranking": 3,
        "timezone": "America/Edmonton"
    },
    {
        "city": "New Westminster",
        "city_ascii": "New Westminster",
        "density": 4543.4,
        "id": "1124196524",
        "lat": "49.2069",
        "lng": "-122.9111",
        "population": 70996.0,
        "postal": "V3L V3M",
        "province_id": "BC",
        "province_name": "British Columbia",
        "ranking": 2,
        "timezone": "America/Vancouver"
    },
    {
        "city": "Châteauguay",
        "city_ascii": "Chateauguay",
        "density": 1278.9,
        "id": "1124437897",
        "lat": "45.3800",
        "lng": "-73.7500",
        "population": 70812.0,
        "postal": "J6K J6J",
        "province_id": "QC",
        "province_name": "Quebec",
        "ranking": 3,
        "timezone": "America/Montreal"
    },
    {
        "city": "Saint-Jérôme",
        "city_ascii": "Saint-Jerome",
        "density": 756.3,
        "id": "1124268324",
        "lat": "45.7833",
        "lng": "-74.0000",
        "population": 69598.0,
        "postal": "J7Y J7Z J5L",
        "province_id": "QC",
        "province_name": "Quebec",
        "ranking": 3,
        "timezone": "America/Montreal"
    },
    {
        "city": "Drummondville",
        "city_ascii": "Drummondville",
        "density": 1315.4,
        "id": "1124624283",
        "lat": "45.8833",
        "lng": "-72.4833",
        "population": 68601.0,
        "postal": "J2E J2C J2B J2A J1Z",
        "province_id": "QC",
        "province_name": "Quebec",
        "ranking": 3,
        "timezone": "America/Montreal"
    },
    {
        "city": "Saint John",
        "city_ascii": "Saint John",
        "density": 213.8,
        "id": "1124631364",
        "lat": "45.2806",
        "lng": "-66.0761",
        "population": 67575.0,
        "postal": "E2P E2L E2M E2N E2H E2J E2K",
        "province_id": "NB",
        "province_name": "New Brunswick",
        "ranking": 3,
        "timezone": "America/Moncton"
    },
    {
        "city": "Caledon",
        "city_ascii": "Caledon",
        "density": 96.6,
        "id": "1124070007",
        "lat": "43.8667",
        "lng": "-79.8667",
        "population": 66502.0,
        "postal": "L7K L7C L7E",
        "province_id": "ON",
        "province_name": "Ontario",
        "ranking": 3,
        "timezone": "America/Toronto"
    },
    {
        "city": "St. Albert",
        "city_ascii": "St. Albert",
        "density": 1353.9,
        "id": "1124850754",
        "lat": "53.6303",
        "lng": "-113.6258",
        "population": 65589.0,
        "postal": "T8N",
        "province_id": "AB",
        "province_name": "Alberta",
        "ranking": 3,
        "timezone": "America/Edmonton"
    },
    {
        "city": "Granby",
        "city_ascii": "Granby",
        "density": 415.3,
        "id": "1124502071",
        "lat": "45.4000",
        "lng": "-72.7333",
        "population": 63433.0,
        "postal": "J2G J2J J2H",
        "province_id": "QC",
        "province_name": "Quebec",
        "ranking": 3,
        "timezone": "America/Montreal"
    },
    {
        "city": "Medicine Hat",
        "city_ascii": "Medicine Hat",
        "density": 564.6,
        "id": "1124303972",
        "lat": "50.0417",
        "lng": "-110.6775",
        "population": 63260.0,
        "postal": "T1A T1B T1C",
        "province_id": "AB",
        "province_name": "Alberta",
        "ranking": 3,
        "timezone": "America/Edmonton"
    },
    {
        "city": "Grande Prairie",
        "city_ascii": "Grande Prairie",
        "density": 475.9,
        "id": "1124505481",
        "lat": "55.1708",
        "lng": "-118.7947",
        "population": 63166.0,
        "postal": "T8V T8X T8W",
        "province_id": "AB",
        "province_name": "Alberta",
        "ranking": 3,
        "timezone": "America/Edmonton"
    },
    {
        "city": "St. Thomas",
        "city_ascii": "St. Thomas",
        "density": 1067.3,
        "id": "1124790209",
        "lat": "42.7750",
        "lng": "-81.1833",
        "population": 61707.0,
        "postal": "N5R N5P",
        "province_id": "ON",
        "province_name": "Ontario",
        "ranking": 3,
        "timezone": "America/Toronto"
    },
    {
        "city": "Airdrie",
        "city_ascii": "Airdrie",
        "density": 728.2,
        "id": "1124990202",
        "lat": "51.2917",
        "lng": "-114.0144",
        "population": 61581.0,
        "postal": "T4B T4A",
        "province_id": "AB",
        "province_name": "Alberta",
        "ranking": 3,
        "timezone": "America/Edmonton"
    },
    {
        "city": "Halton Hills",
        "city_ascii": "Halton Hills",
        "density": 221.4,
        "id": "1124000788",
        "lat": "43.6300",
        "lng": "-79.9500",
        "population": 61161.0,
        "postal": "L7J L7G L0P L9T",
        "province_id": "ON",
        "province_name": "Ontario",
        "ranking": 3,
        "timezone": "America/Toronto"
    },
    {
        "city": "Saint-Hyacinthe",
        "city_ascii": "Saint-Hyacinthe",
        "density": 294.5,
        "id": "1124010116",
        "lat": "45.6167",
        "lng": "-72.9500",
        "population": 59614.0,
        "postal": "J2T J2S J2R",
        "province_id": "QC",
        "province_name": "Quebec",
        "ranking": 3,
        "timezone": "America/Montreal"
    },
    {
        "city": "Lac-Brome",
        "city_ascii": "Lac-Brome",
        "density": 27.3,
        "id": "1124000579",
        "lat": "45.2167",
        "lng": "-72.5167",
        "population": 58889.0,
        "postal": "J0E",
        "province_id": "QC",
        "province_name": "Quebec",
        "ranking": 3,
        "timezone": "America/Montreal"
    },
    {
        "city": "Port Coquitlam",
        "city_ascii": "Port Coquitlam",
        "density": 2009.4,
        "id": "1124473757",
        "lat": "49.2625",
        "lng": "-122.7811",
        "population": 58612.0,
        "postal": "V3B V3C",
        "province_id": "BC",
        "province_name": "British Columbia",
        "ranking": 2,
        "timezone": "America/Vancouver"
    },
    {
        "city": "Fredericton",
        "city_ascii": "Fredericton",
        "density": 439.2,
        "id": "1124061289",
        "lat": "45.9636",
        "lng": "-66.6431",
        "population": 58220.0,
        "postal": "E3G E3C E3B E3A",
        "province_id": "NB",
        "province_name": "New Brunswick",
        "ranking": 3,
        "timezone": "America/Moncton"
    },
    {
        "city": "Blainville",
        "city_ascii": "Blainville",
        "density": 1030.9,
        "id": "1124000623",
        "lat": "45.6700",
        "lng": "-73.8800",
        "population": 56363.0,
        "postal": "J7B J7C J7E",
        "province_id": "QC",
        "province_name": "Quebec",
        "ranking": 3,
        "timezone": "America/Montreal"
    },
    {
        "city": "Aurora",
        "city_ascii": "Aurora",
        "density": 1112.3,
        "id": "1124085034",
        "lat": "44.0000",
        "lng": "-79.4667",
        "population": 55445.0,
        "postal": "L4G",
        "province_id": "ON",
        "province_name": "Ontario",
        "ranking": 3,
        "timezone": "America/Toronto"
    },
    {
        "city": "Welland",
        "city_ascii": "Welland",
        "density": 645.3,
        "id": "1124745616",
        "lat": "42.9833",
        "lng": "-79.2333",
        "population": 52293.0,
        "postal": "L3B L3C",
        "province_id": "ON",
        "province_name": "Ontario",
        "ranking": 3,
        "timezone": "America/Toronto"
    },
    {
        "city": "North Bay",
        "city_ascii": "North Bay",
        "density": 161.6,
        "id": "1124058496",
        "lat": "46.3000",
        "lng": "-79.4500",
        "population": 51553.0,
        "postal": "P1A P1B P1C",
        "province_id": "ON",
        "province_name": "Ontario",
        "ranking": 3,
        "timezone": "America/Toronto"
    },
    {
        "city": "Beloeil",
        "city_ascii": "Beloeil",
        "density": 862.8,
        "id": "1124469084",
        "lat": "45.5667",
        "lng": "-73.2000",
        "population": 50796.0,
        "postal": "J3G",
        "province_id": "QC",
        "province_name": "Quebec",
        "ranking": 3,
        "timezone": "America/Montreal"
    },
    {
        "city": "Belleville",
        "city_ascii": "Belleville",
        "density": 205.1,
        "id": "1124786959",
        "lat": "44.1667",
        "lng": "-77.3833",
        "population": 50716.0,
        "postal": "K8N K8P K0K",
        "province_id": "ON",
        "province_name": "Ontario",
        "ranking": 3,
        "timezone": "America/Toronto"
    },
    {
        "city": "Mirabel",
        "city_ascii": "Mirabel",
        "density": 104.1,
        "id": "1124182375",
        "lat": "45.6500",
        "lng": "-74.0833",
        "population": 50513.0,
        "postal": "J7J J7N",
        "province_id": "QC",
        "province_name": "Quebec",
        "ranking": 3,
        "timezone": "America/Montreal"
    },
    {
        "city": "Shawinigan",
        "city_ascii": "Shawinigan",
        "density": 68.2,
        "id": "1124441118",
        "lat": "46.5667",
        "lng": "-72.7500",
        "population": 50060.0,
        "postal": "G9N G9T G9R G9P G0X",
        "province_id": "QC",
        "province_name": "Quebec",
        "ranking": 3,
        "timezone": "America/Montreal"
    },
    {
        "city": "Dollard-des-Ormeaux",
        "city_ascii": "Dollard-des-Ormeaux",
        "density": 3286.7,
        "id": "1124902278",
        "lat": "45.4833",
        "lng": "-73.8167",
        "population": 49637.0,
        "postal": "H9A H9B H9G",
        "province_id": "QC",
        "province_name": "Quebec",
        "ranking": 2,
        "timezone": "America/Montreal"
    },
    {
        "city": "Brandon",
        "city_ascii": "Brandon",
        "density": 599.1,
        "id": "1124239939",
        "lat": "49.8483",
        "lng": "-99.9500",
        "population": 48859.0,
        "postal": "R7A R7B R7C",
        "province_id": "MB",
        "province_name": "Manitoba",
        "ranking": 3,
        "timezone": "America/Winnipeg"
    },
    {
        "city": "Rimouski",
        "city_ascii": "Rimouski",
        "density": 143.3,
        "id": "1124433645",
        "lat": "48.4500",
        "lng": "-68.5300",
        "population": 48664.0,
        "postal": "G5N G5M G5L G0L",
        "province_id": "QC",
        "province_name": "Quebec",
        "ranking": 3,
        "timezone": "America/Montreal"
    },
    {
        "city": "Cornwall",
        "city_ascii": "Cornwall",
        "density": 756.8,
        "id": "1124938303",
        "lat": "45.0275",
        "lng": "-74.7400",
        "population": 46589.0,
        "postal": "K6J K6K K6H",
        "province_id": "ON",
        "province_name": "Ontario",
        "ranking": 3,
        "timezone": "America/Toronto"
    },
    {
        "city": "Stouffville",
        "city_ascii": "Stouffville",
        "density": 222.3,
        "id": "1124207594",
        "lat": "43.9667",
        "lng": "-79.2500",
        "population": 45837.0,
        "postal": "L0H L3Y L4A",
        "province_id": "ON",
        "province_name": "Ontario",
        "ranking": 3,
        "timezone": "America/Toronto"
    },
    {
        "city": "Georgina",
        "city_ascii": "Georgina",
        "density": 157.8,
        "id": "1124000048",
        "lat": "44.3000",
        "lng": "-79.4333",
        "population": 45418.0,
        "postal": "L0E L4P",
        "province_id": "ON",
        "province_name": "Ontario",
        "ranking": 3,
        "timezone": "America/Toronto"
    },
    {
        "city": "Victoriaville",
        "city_ascii": "Victoriaville",
        "density": 516.2,
        "id": "1124149787",
        "lat": "46.0500",
        "lng": "-71.9667",
        "population": 45309.0,
        "postal": "G6R G6P G6T",
        "province_id": "QC",
        "province_name": "Quebec",
        "ranking": 3,
        "timezone": "America/Montreal"
    },
    {
        "city": "Vernon",
        "city_ascii": "Vernon",
        "density": 417.7,
        "id": "1124553338",
        "lat": "50.2670",
        "lng": "-119.2720",
        "population": 44600.0,
        "postal": "V1T V1H",
        "province_id": "BC",
        "province_name": "British Columbia",
        "ranking": 3,
        "timezone": "America/Vancouver"
    },
    {
        "city": "Duncan",
        "city_ascii": "Duncan",
        "density": 2387.1,
        "id": "1124316061",
        "lat": "48.7787",
        "lng": "-123.7079",
        "population": 44451.0,
        "postal": "V9L",
        "province_id": "BC",
        "province_name": "British Columbia",
        "ranking": 2,
        "timezone": "America/Vancouver"
    },
    {
        "city": "Saint-Eustache",
        "city_ascii": "Saint-Eustache",
        "density": 634.3,
        "id": "1124758162",
        "lat": "45.5700",
        "lng": "-73.9000",
        "population": 44154.0,
        "postal": "J7P J7R",
        "province_id": "QC",
        "province_name": "Quebec",
        "ranking": 3,
        "timezone": "America/Montreal"
    },
    {
        "city": "Quinte West",
        "city_ascii": "Quinte West",
        "density": 88.2,
        "id": "1124001037",
        "lat": "44.1833",
        "lng": "-77.5667",
        "population": 43577.0,
        "postal": "K8N K8R K8V K0K",
        "province_id": "ON",
        "province_name": "Ontario",
        "ranking": 3,
        "timezone": "America/Toronto"
    },
    {
        "city": "Charlottetown",
        "city_ascii": "Charlottetown",
        "density": 779.7,
        "id": "1124897699",
        "lat": "46.2403",
        "lng": "-63.1347",
        "population": 42602.0,
        "postal": "C1C C1A C1E",
        "province_id": "PE",
        "province_name": "Prince Edward Island",
        "ranking": 3,
        "timezone": "America/Halifax"
    },
    {
        "city": "Mascouche",
        "city_ascii": "Mascouche",
        "density": 398.4,
        "id": "1124001580",
        "lat": "45.7500",
        "lng": "-73.6000",
        "population": 42491.0,
        "postal": "J7K J7L",
        "province_id": "QC",
        "province_name": "Quebec",
        "ranking": 3,
        "timezone": "America/Montreal"
    },
    {
        "city": "West Vancouver",
        "city_ascii": "West Vancouver",
        "density": 486.8,
        "id": "1124001824",
        "lat": "49.3667",
        "lng": "-123.1667",
        "population": 42473.0,
        "postal": "V7T V7V V7S",
        "province_id": "BC",
        "province_name": "British Columbia",
        "ranking": 3,
        "timezone": "America/Vancouver"
    },
    {
        "city": "Salaberry-de-Valleyfield",
        "city_ascii": "Salaberry-de-Valleyfield",
        "density": 395.5,
        "id": "1124638758",
        "lat": "45.2500",
        "lng": "-74.1300",
        "population": 42410.0,
        "postal": "J6T J6S",
        "province_id": "QC",
        "province_name": "Quebec",
        "ranking": 3,
        "timezone": "America/Montreal"
    },
    {
        "city": "Rouyn-Noranda",
        "city_ascii": "Rouyn-Noranda",
        "density": 7.0,
        "id": "1124267752",
        "lat": "48.2333",
        "lng": "-79.0167",
        "population": 42334.0,
        "postal": "J9X J9Y J0Y J0Z",
        "province_id": "QC",
        "province_name": "Quebec",
        "ranking": 3,
        "timezone": "America/Montreal"
    },
    {
        "city": "Timmins",
        "city_ascii": "Timmins",
        "density": 14.0,
        "id": "1124760634",
        "lat": "48.4667",
        "lng": "-81.3333",
        "population": 41788.0,
        "postal": "P0N P4N P4R P4P",
        "province_id": "ON",
        "province_name": "Ontario",
        "ranking": 3,
        "timezone": "America/Toronto"
    },
    {
        "city": "Sorel-Tracy",
        "city_ascii": "Sorel-Tracy",
        "density": 241.1,
        "id": "1124000182",
        "lat": "46.0333",
        "lng": "-73.1167",
        "population": 41629.0,
        "postal": "J3P J3R",
        "province_id": "QC",
        "province_name": "Quebec",
        "ranking": 3,
        "timezone": "America/Montreal"
    },
    {
        "city": "New Tecumseth",
        "city_ascii": "New Tecumseth",
        "density": 151.1,
        "id": "1124001571",
        "lat": "44.0833",
        "lng": "-79.7500",
        "population": 41439.0,
        "postal": "L0L L0G L9R",
        "province_id": "ON",
        "province_name": "Ontario",
        "ranking": 3,
        "timezone": "America/Toronto"
    },
    {
        "city": "Woodstock",
        "city_ascii": "Woodstock",
        "density": 835.3,
        "id": "1124758374",
        "lat": "43.1306",
        "lng": "-80.7467",
        "population": 40902.0,
        "postal": "N4S N4T N4V",
        "province_id": "ON",
        "province_name": "Ontario",
        "ranking": 3,
        "timezone": "America/Toronto"
    },
    {
        "city": "Boucherville",
        "city_ascii": "Boucherville",
        "density": 575.5,
        "id": "1124000296",
        "lat": "45.6000",
        "lng": "-73.4500",
        "population": 40753.0,
        "postal": "J4B",
        "province_id": "QC",
        "province_name": "Quebec",
        "ranking": 3,
        "timezone": "America/Montreal"
    },
    {
        "city": "Mission",
        "city_ascii": "Mission",
        "density": 170.6,
        "id": "1124502601",
        "lat": "49.1337",
        "lng": "-122.3112",
        "population": 38833.0,
        "postal": "V4S V2V",
        "province_id": "BC",
        "province_name": "British Columbia",
        "ranking": 3,
        "timezone": "America/Vancouver"
    },
    {
        "city": "Vaudreuil-Dorion",
        "city_ascii": "Vaudreuil-Dorion",
        "density": 524.1,
        "id": "1124618618",
        "lat": "45.4000",
        "lng": "-74.0333",
        "population": 38117.0,
        "postal": "J7V",
        "province_id": "QC",
        "province_name": "Quebec",
        "ranking": 3,
        "timezone": "America/Montreal"
    },
    {
        "city": "Brant",
        "city_ascii": "Brant",
        "density": 43.5,
        "id": "1124000682",
        "lat": "43.1167",
        "lng": "-80.3667",
        "population": 36707.0,
        "postal": "N3L N3T N3W N0E",
        "province_id": "ON",
        "province_name": "Ontario",
        "ranking": 3,
        "timezone": "America/Toronto"
    },
    {
        "city": "Lakeshore",
        "city_ascii": "Lakeshore",
        "density": 69.0,
        "id": "1124001501",
        "lat": "42.2399",
        "lng": "-82.6511",
        "population": 36611.0,
        "postal": "N8M N8N N9K N0P N0R",
        "province_id": "ON",
        "province_name": "Ontario",
        "ranking": 3,
        "timezone": "America/Toronto"
    },
    {
        "city": "Innisfil",
        "city_ascii": "Innisfil",
        "density": 139.2,
        "id": "1124001408",
        "lat": "44.3000",
        "lng": "-79.5833",
        "population": 36566.0,
        "postal": "L0L L9S",
        "province_id": "ON",
        "province_name": "Ontario",
        "ranking": 3,
        "timezone": "America/Toronto"
    },
    {
        "city": "Prince Albert",
        "city_ascii": "Prince Albert",
        "density": 534.4,
        "id": "1124158154",
        "lat": "53.2000",
        "lng": "-105.7500",
        "population": 35926.0,
        "postal": "S6X S6V S6W",
        "province_id": "SK",
        "province_name": "Saskatchewan",
        "ranking": 3,
        "timezone": "America/Regina"
    },
    {
        "city": "Langford Station",
        "city_ascii": "Langford Station",
        "density": 885.0,
        "id": "1124095065",
        "lat": "48.4506",
        "lng": "-123.5058",
        "population": 35342.0,
        "postal": "V9B V9C",
        "province_id": "BC",
        "province_name": "British Columbia",
        "ranking": 3,
        "timezone": "America/Vancouver"
    },
    {
        "city": "Bradford West Gwillimbury",
        "city_ascii": "Bradford West Gwillimbury",
        "density": 175.7,
        "id": "1124001093",
        "lat": "44.1333",
        "lng": "-79.6333",
        "population": 35325.0,
        "postal": "L0G L3Z",
        "province_id": "ON",
        "province_name": "Ontario",
        "ranking": 3,
        "timezone": "America/Toronto"
    },
    {
        "city": "Campbell River",
        "city_ascii": "Campbell River",
        "density": 1143.9,
        "id": "1124851971",
        "lat": "50.0244",
        "lng": "-125.2475",
        "population": 35138.0,
        "postal": "V9H V9W",
        "province_id": "BC",
        "province_name": "British Columbia",
        "ranking": 3,
        "timezone": "America/Vancouver"
    },
    {
        "city": "Spruce Grove",
        "city_ascii": "Spruce Grove",
        "density": 1057.9,
        "id": "1124943146",
        "lat": "53.5450",
        "lng": "-113.9008",
        "population": 34066.0,
        "postal": "T7X",
        "province_id": "AB",
        "province_name": "Alberta",
        "ranking": 3,
        "timezone": "America/Edmonton"
    },
    {
        "city": "Moose Jaw",
        "city_ascii": "Moose Jaw",
        "density": 710.7,
        "id": "1124806868",
        "lat": "50.3933",
        "lng": "-105.5519",
        "population": 33890.0,
        "postal": "S6K S6H",
        "province_id": "SK",
        "province_name": "Saskatchewan",
        "ranking": 3,
        "timezone": "America/Regina"
    },
    {
        "city": "Penticton",
        "city_ascii": "Penticton",
        "density": 801.8,
        "id": "1124613898",
        "lat": "49.4911",
        "lng": "-119.5886",
        "population": 33761.0,
        "postal": "V2A",
        "province_id": "BC",
        "province_name": "British Columbia",
        "ranking": 3,
        "timezone": "America/Vancouver"
    },
    {
        "city": "Port Moody",
        "city_ascii": "Port Moody",
        "density": 1295.9,
        "id": "1124252668",
        "lat": "49.2831",
        "lng": "-122.8317",
        "population": 33551.0,
        "postal": "V3H",
        "province_id": "BC",
        "province_name": "British Columbia",
        "ranking": 3,
        "timezone": "America/Vancouver"
    },
    {
        "city": "Leamington",
        "city_ascii": "Leamington",
        "density": 105.3,
        "id": "1124258797",
        "lat": "42.0667",
        "lng": "-82.5833",
        "population": 32991.0,
        "postal": "N8H N0P",
        "province_id": "ON",
        "province_name": "Ontario",
        "ranking": 3,
        "timezone": "America/Toronto"
    },
    {
        "city": "East Kelowna",
        "city_ascii": "East Kelowna",
        "density": 264.4,
        "id": "1124070905",
        "lat": "49.8625",
        "lng": "-119.5833",
        "population": 32655.0,
        "postal": "V1Z V4T",
        "province_id": "BC",
        "province_name": "British Columbia",
        "ranking": 3,
        "timezone": "America/Vancouver"
    },
    {
        "city": "Côte-Saint-Luc",
        "city_ascii": "Cote-Saint-Luc",
        "density": 4662.5,
        "id": "1124563603",
        "lat": "45.4687",
        "lng": "-73.6673",
        "population": 32448.0,
        "postal": "H4W H4V H4X",
        "province_id": "QC",
        "province_name": "Quebec",
        "ranking": 2,
        "timezone": "America/Montreal"
    },
    {
        "city": "Val-d'Or",
        "city_ascii": "Val-d'Or",
        "density": 9.0,
        "id": "1124239138",
        "lat": "48.1000",
        "lng": "-77.7833",
        "population": 31862.0,
        "postal": "J9P",
        "province_id": "QC",
        "province_name": "Quebec",
        "ranking": 3,
        "timezone": "America/Montreal"
    },
    {
        "city": "Owen Sound",
        "city_ascii": "Owen Sound",
        "density": 1311.1,
        "id": "1124623613",
        "lat": "44.5667",
        "lng": "-80.9333",
        "population": 31820.0,
        "postal": "N4K",
        "province_id": "ON",
        "province_name": "Ontario",
        "ranking": 3,
        "timezone": "America/Toronto"
    },
    {
        "city": "Stratford",
        "city_ascii": "Stratford",
        "density": 1167.5,
        "id": "1124676255",
        "lat": "43.3708",
        "lng": "-80.9819",
        "population": 31465.0,
        "postal": "N4Z N5A",
        "province_id": "ON",
        "province_name": "Ontario",
        "ranking": 3,
        "timezone": "America/Toronto"
    },
    {
        "city": "Lloydminster",
        "city_ascii": "Lloydminster",
        "density": 742.2,
        "id": "1124051728",
        "lat": "53.2783",
        "lng": "-110.0050",
        "population": 31410.0,
        "postal": "S9V",
        "province_id": "SK",
        "province_name": "Saskatchewan",
        "ranking": 3,
        "timezone": "America/Edmonton"
    },
    {
        "city": "Pointe-Claire",
        "city_ascii": "Pointe-Claire",
        "density": 1662.0,
        "id": "1124470650",
        "lat": "45.4500",
        "lng": "-73.8167",
        "population": 31380.0,
        "postal": "H9R H9S",
        "province_id": "QC",
        "province_name": "Quebec",
        "ranking": 3,
        "timezone": "America/Montreal"
    },
    {
        "city": "Orillia",
        "city_ascii": "Orillia",
        "density": 1090.3,
        "id": "1124049830",
        "lat": "44.6000",
        "lng": "-79.4167",
        "population": 31166.0,
        "postal": "L3V",
        "province_id": "ON",
        "province_name": "Ontario",
        "ranking": 3,
        "timezone": "America/Toronto"
    },
    {
        "city": "Alma",
        "city_ascii": "Alma",
        "density": 158.0,
        "id": "1124138438",
        "lat": "48.5500",
        "lng": "-71.6500",
        "population": 30904.0,
        "postal": "G8E G8B G8C",
        "province_id": "QC",
        "province_name": "Quebec",
        "ranking": 3,
        "timezone": "America/Montreal"
    },
    {
        "city": "Orangeville",
        "city_ascii": "Orangeville",
        "density": 69.3,
        "id": "1124566061",
        "lat": "43.9167",
        "lng": "-80.1167",
        "population": 30734.0,
        "postal": "L9W",
        "province_id": "ON",
        "province_name": "Ontario",
        "ranking": 3,
        "timezone": "America/Toronto"
    },
    {
        "city": "Fort Erie",
        "city_ascii": "Fort Erie",
        "density": 184.7,
        "id": "1124516852",
        "lat": "42.9167",
        "lng": "-79.0167",
        "population": 30710.0,
        "postal": "L0S L2A",
        "province_id": "ON",
        "province_name": "Ontario",
        "ranking": 3,
        "timezone": "America/Toronto"
    },
    {
        "city": "LaSalle",
        "city_ascii": "LaSalle",
        "density": 461.8,
        "id": "1124000988",
        "lat": "42.2167",
        "lng": "-83.0667",
        "population": 30180.0,
        "postal": "N9J N9H N9A",
        "province_id": "ON",
        "province_name": "Ontario",
        "ranking": 3,
        "timezone": "America/Toronto"
    },
    {
        "city": "Sainte-Julie",
        "city_ascii": "Sainte-Julie",
        "density": 607.8,
        "id": "1124000521",
        "lat": "45.5833",
        "lng": "-73.3333",
        "population": 30104.0,
        "postal": "J3E",
        "province_id": "QC",
        "province_name": "Quebec",
        "ranking": 3,
        "timezone": "America/Montreal"
    },
    {
        "city": "Leduc",
        "city_ascii": "Leduc",
        "density": 706.7,
        "id": "1124170853",
        "lat": "53.2594",
        "lng": "-113.5492",
        "population": 29993.0,
        "postal": "T9E",
        "province_id": "AB",
        "province_name": "Alberta",
        "ranking": 3,
        "timezone": "America/Edmonton"
    },
    {
        "city": "North Cowichan",
        "city_ascii": "North Cowichan",
        "density": 147.3,
        "id": "1124000052",
        "lat": "48.8236",
        "lng": "-123.7192",
        "population": 29676.0,
        "postal": "V0R V9L",
        "province_id": "BC",
        "province_name": "British Columbia",
        "ranking": 3,
        "timezone": "America/Vancouver"
    },
    {
        "city": "Chambly",
        "city_ascii": "Chambly",
        "density": 1158.7,
        "id": "1124345124",
        "lat": "45.4311",
        "lng": "-73.2873",
        "population": 29120.0,
        "postal": "J3L",
        "province_id": "QC",
        "province_name": "Quebec",
        "ranking": 3,
        "timezone": "America/Montreal"
    },
    {
        "city": "Okotoks",
        "city_ascii": "Okotoks",
        "density": 1471.0,
        "id": "1124521470",
        "lat": "50.7250",
        "lng": "-113.9750",
        "population": 28881.0,
        "postal": "T1S",
        "province_id": "AB",
        "province_name": "Alberta",
        "ranking": 3,
        "timezone": "America/Edmonton"
    },
    {
        "city": "Sept-Îles",
        "city_ascii": "Sept-Iles",
        "density": 16.1,
        "id": "1124406431",
        "lat": "50.2167",
        "lng": "-66.3833",
        "population": 28534.0,
        "postal": "G4S G0G",
        "province_id": "QC",
        "province_name": "Quebec",
        "ranking": 3,
        "timezone": "America/Montreal"
    },
    {
        "city": "Centre Wellington",
        "city_ascii": "Centre Wellington",
        "density": 69.2,
        "id": "1124000849",
        "lat": "43.7000",
        "lng": "-80.3667",
        "population": 28191.0,
        "postal": "N0B N1M",
        "province_id": "ON",
        "province_name": "Ontario",
        "ranking": 3,
        "timezone": "America/Toronto"
    },
    {
        "city": "Saint-Constant",
        "city_ascii": "Saint-Constant",
        "density": 478.9,
        "id": "1124000054",
        "lat": "45.3700",
        "lng": "-73.5700",
        "population": 27359.0,
        "postal": "J5A",
        "province_id": "QC",
        "province_name": "Quebec",
        "ranking": 3,
        "timezone": "America/Montreal"
    },
    {
        "city": "Grimsby",
        "city_ascii": "Grimsby",
        "density": 396.3,
        "id": "1124989517",
        "lat": "43.2000",
        "lng": "-79.5500",
        "population": 27314.0,
        "postal": "L3M",
        "province_id": "ON",
        "province_name": "Ontario",
        "ranking": 3,
        "timezone": "America/Toronto"
    },
    {
        "city": "Boisbriand",
        "city_ascii": "Boisbriand",
        "density": 966.5,
        "id": "1124001940",
        "lat": "45.6200",
        "lng": "-73.8300",
        "population": 26884.0,
        "postal": "J7H J7E J7G",
        "province_id": "QC",
        "province_name": "Quebec",
        "ranking": 3,
        "timezone": "America/Montreal"
    },
    {
        "city": "Conception Bay South",
        "city_ascii": "Conception Bay South",
        "density": 443.3,
        "id": "1124000563",
        "lat": "47.5167",
        "lng": "-52.9833",
        "population": 26199.0,
        "postal": "A1W A1X",
        "province_id": "NL",
        "province_name": "Newfoundland and Labrador",
        "ranking": 3,
        "timezone": "America/St_Johns"
    },
    {
        "city": "Saint-Bruno-de-Montarville",
        "city_ascii": "Saint-Bruno-de-Montarville",
        "density": 603.3,
        "id": "1124286783",
        "lat": "45.5333",
        "lng": "-73.3500",
        "population": 26107.0,
        "postal": "J3V",
        "province_id": "QC",
        "province_name": "Quebec",
        "ranking": 3,
        "timezone": "America/Montreal"
    },
    {
        "city": "Sainte-Thérèse",
        "city_ascii": "Sainte-Therese",
        "density": 2716.1,
        "id": "1124190411",
        "lat": "45.6333",
        "lng": "-73.8500",
        "population": 26025.0,
        "postal": "J7E",
        "province_id": "QC",
        "province_name": "Quebec",
        "ranking": 2,
        "timezone": "America/Montreal"
    },
    {
        "city": "Cochrane",
        "city_ascii": "Cochrane",
        "density": 866.7,
        "id": "1124952542",
        "lat": "51.1890",
        "lng": "-114.4670",
        "population": 25853.0,
        "postal": "T4C",
        "province_id": "AB",
        "province_name": "Alberta",
        "ranking": 3,
        "timezone": "America/Edmonton"
    },
    {
        "city": "Thetford Mines",
        "city_ascii": "Thetford Mines",
        "density": 113.3,
        "id": "1124032181",
        "lat": "46.1000",
        "lng": "-71.3000",
        "population": 25709.0,
        "postal": "G6H G6G",
        "province_id": "QC",
        "province_name": "Quebec",
        "ranking": 3,
        "timezone": "America/Montreal"
    },
    {
        "city": "Courtenay",
        "city_ascii": "Courtenay",
        "density": 789.9,
        "id": "1124324905",
        "lat": "49.6878",
        "lng": "-124.9944",
        "population": 25599.0,
        "postal": "V9N",
        "province_id": "BC",
        "province_name": "British Columbia",
        "ranking": 3,
        "timezone": "America/Vancouver"
    },
    {
        "city": "Magog",
        "city_ascii": "Magog",
        "density": 175.9,
        "id": "1124404849",
        "lat": "45.2667",
        "lng": "-72.1500",
        "population": 25358.0,
        "postal": "J1X",
        "province_id": "QC",
        "province_name": "Quebec",
        "ranking": 3,
        "timezone": "America/Montreal"
    },
    {
        "city": "Whitehorse",
        "city_ascii": "Whitehorse",
        "density": 60.2,
        "id": "1124348186",
        "lat": "60.7029",
        "lng": "-135.0691",
        "population": 25085.0,
        "postal": "Y1A",
        "province_id": "YT",
        "province_name": "Yukon",
        "ranking": 3,
        "timezone": "America/Whitehorse"
    },
    {
        "city": "Woolwich",
        "city_ascii": "Woolwich",
        "density": 76.7,
        "id": "1124000096",
        "lat": "43.5667",
        "lng": "-80.4833",
        "population": 25006.0,
        "postal": "N2J N3B N0B",
        "province_id": "ON",
        "province_name": "Ontario",
        "ranking": 3,
        "timezone": "America/Toronto"
    },
    {
        "city": "Clarence-Rockland",
        "city_ascii": "Clarence-Rockland",
        "density": 82.3,
        "id": "1124000639",
        "lat": "45.4833",
        "lng": "-75.2000",
        "population": 24512.0,
        "postal": "K4K K0A",
        "province_id": "ON",
        "province_name": "Ontario",
        "ranking": 3,
        "timezone": "America/Toronto"
    },
    {
        "city": "Fort Saskatchewan",
        "city_ascii": "Fort Saskatchewan",
        "density": 501.3,
        "id": "1124769097",
        "lat": "53.7128",
        "lng": "-113.2133",
        "population": 24149.0,
        "postal": "T8L",
        "province_id": "AB",
        "province_name": "Alberta",
        "ranking": 3,
        "timezone": "America/Edmonton"
    },
    {
        "city": "East Gwillimbury",
        "city_ascii": "East Gwillimbury",
        "density": 97.9,
        "id": "1124001370",
        "lat": "44.1333",
        "lng": "-79.4167",
        "population": 23991.0,
        "postal": "L0G L9N",
        "province_id": "ON",
        "province_name": "Ontario",
        "ranking": 3,
        "timezone": "America/Toronto"
    },
    {
        "city": "Lincoln",
        "city_ascii": "Lincoln",
        "density": 146.1,
        "id": "1124001767",
        "lat": "43.1300",
        "lng": "-79.4300",
        "population": 23787.0,
        "postal": "L0R L2R",
        "province_id": "ON",
        "province_name": "Ontario",
        "ranking": 3,
        "timezone": "America/Toronto"
    },
    {
        "city": "La Prairie",
        "city_ascii": "La Prairie",
        "density": 539.7,
        "id": "1124956496",
        "lat": "45.4200",
        "lng": "-73.5000",
        "population": 23357.0,
        "postal": "J5R",
        "province_id": "QC",
        "province_name": "Quebec",
        "ranking": 3,
        "timezone": "America/Montreal"
    },
    {
        "city": "Tecumseh",
        "city_ascii": "Tecumseh",
        "density": 245.4,
        "id": "1124720869",
        "lat": "42.2431",
        "lng": "-82.9256",
        "population": 23229.0,
        "postal": "N8N N9K N0R",
        "province_id": "ON",
        "province_name": "Ontario",
        "ranking": 3,
        "timezone": "America/Toronto"
    },
    {
        "city": "Mount Pearl Park",
        "city_ascii": "Mount Pearl Park",
        "density": 1456.8,
        "id": "1124869949",
        "lat": "47.5189",
        "lng": "-52.8058",
        "population": 22957.0,
        "postal": "A1N",
        "province_id": "NL",
        "province_name": "Newfoundland and Labrador",
        "ranking": 3,
        "timezone": "America/St_Johns"
    },
    {
        "city": "Amherstburg",
        "city_ascii": "Amherstburg",
        "density": 118.2,
        "id": "1124696938",
        "lat": "42.1000",
        "lng": "-83.0833",
        "population": 21936.0,
        "postal": "N9V N0R",
        "province_id": "ON",
        "province_name": "Ontario",
        "ranking": 3,
        "timezone": "America/Toronto"
    },
    {
        "city": "Saint-Lambert",
        "city_ascii": "Saint-Lambert",
        "density": 2880.6,
        "id": "1124174363",
        "lat": "45.5000",
        "lng": "-73.5167",
        "population": 21861.0,
        "postal": "J4P J4S J4R",
        "province_id": "QC",
        "province_name": "Quebec",
        "ranking": 2,
        "timezone": "America/Montreal"
    },
    {
        "city": "Brockville",
        "city_ascii": "Brockville",
        "density": 1167.8,
        "id": "1124286131",
        "lat": "44.5833",
        "lng": "-75.6833",
        "population": 21854.0,
        "postal": "K6V",
        "province_id": "ON",
        "province_name": "Ontario",
        "ranking": 3,
        "timezone": "America/Toronto"
    },
    {
        "city": "Collingwood",
        "city_ascii": "Collingwood",
        "density": 645.1,
        "id": "1124219884",
        "lat": "44.5000",
        "lng": "-80.2167",
        "population": 21793.0,
        "postal": "L9Y",
        "province_id": "ON",
        "province_name": "Ontario",
        "ranking": 3,
        "timezone": "America/Toronto"
    },
    {
        "city": "Scugog",
        "city_ascii": "Scugog",
        "density": 45.4,
        "id": "1124000741",
        "lat": "44.0900",
        "lng": "-78.9360",
        "population": 21617.0,
        "postal": "L0C L0B L9L",
        "province_id": "ON",
        "province_name": "Ontario",
        "ranking": 3,
        "timezone": "America/Toronto"
    },
    {
        "city": "Kingsville",
        "city_ascii": "Kingsville",
        "density": 87.3,
        "id": "1124616034",
        "lat": "42.1000",
        "lng": "-82.7167",
        "population": 21552.0,
        "postal": "N8M N9Y N0P N0R",
        "province_id": "ON",
        "province_name": "Ontario",
        "ranking": 3,
        "timezone": "America/Toronto"
    },
    {
        "city": "Baie-Comeau",
        "city_ascii": "Baie-Comeau",
        "density": 64.0,
        "id": "1124859576",
        "lat": "49.2167",
        "lng": "-68.1500",
        "population": 21536.0,
        "postal": "G5C G4Z",
        "province_id": "QC",
        "province_name": "Quebec",
        "ranking": 3,
        "timezone": "America/Montreal"
    },
    {
        "city": "Paradise",
        "city_ascii": "Paradise",
        "density": 731.5,
        "id": "1124001159",
        "lat": "47.5333",
        "lng": "-52.8667",
        "population": 21389.0,
        "postal": "A1L",
        "province_id": "NL",
        "province_name": "Newfoundland and Labrador",
        "ranking": 3,
        "timezone": "America/St_Johns"
    },
    {
        "city": "Uxbridge",
        "city_ascii": "Uxbridge",
        "density": 45.6,
        "id": "1124829638",
        "lat": "44.1167",
        "lng": "-79.1333",
        "population": 21176.0,
        "postal": "L0E L0C L9P L4A",
        "province_id": "ON",
        "province_name": "Ontario",
        "ranking": 3,
        "timezone": "America/Toronto"
    },
    {
        "city": "Essa",
        "city_ascii": "Essa",
        "density": 75.3,
        "id": "1124001569",
        "lat": "44.2500",
        "lng": "-79.7833",
        "population": 21083.0,
        "postal": "L0M L0L L9R",
        "province_id": "ON",
        "province_name": "Ontario",
        "ranking": 3,
        "timezone": "America/Toronto"
    },
    {
        "city": "Candiac",
        "city_ascii": "Candiac",
        "density": 1215.8,
        "id": "1124457982",
        "lat": "45.3800",
        "lng": "-73.5200",
        "population": 21047.0,
        "postal": "J5R",
        "province_id": "QC",
        "province_name": "Quebec",
        "ranking": 3,
        "timezone": "America/Montreal"
    },
    {
        "city": "Oro-Medonte",
        "city_ascii": "Oro-Medonte",
        "density": 35.8,
        "id": "1124001350",
        "lat": "44.5667",
        "lng": "-79.5833",
        "population": 21036.0,
        "postal": "L0L L0K L3V L4R L4M",
        "province_id": "ON",
        "province_name": "Ontario",
        "ranking": 3,
        "timezone": "America/Toronto"
    },
    {
        "city": "Varennes",
        "city_ascii": "Varennes",
        "density": 226.9,
        "id": "1124232101",
        "lat": "45.6833",
        "lng": "-73.4333",
        "population": 20994.0,
        "postal": "J3X",
        "province_id": "QC",
        "province_name": "Quebec",
        "ranking": 3,
        "timezone": "America/Montreal"
    },
    {
        "city": "Strathroy-Caradoc",
        "city_ascii": "Strathroy-Caradoc",
        "density": 77.1,
        "id": "1124000831",
        "lat": "42.9575",
        "lng": "-81.6167",
        "population": 20867.0,
        "postal": "N0L N7G",
        "province_id": "ON",
        "province_name": "Ontario",
        "ranking": 3,
        "timezone": "America/Toronto"
    },
    {
        "city": "Wasaga Beach",
        "city_ascii": "Wasaga Beach",
        "density": 352.6,
        "id": "1124001919",
        "lat": "44.5206",
        "lng": "-80.0167",
        "population": 20675.0,
        "postal": "L9Z",
        "province_id": "ON",
        "province_name": "Ontario",
        "ranking": 3,
        "timezone": "America/Toronto"
    },
    {
        "city": "New Glasgow",
        "city_ascii": "New Glasgow",
        "density": 911.6,
        "id": "1124760188",
        "lat": "45.5926",
        "lng": "-62.6455",
        "population": 20609.0,
        "postal": "B2H",
        "province_id": "NS",
        "province_name": "Nova Scotia",
        "ranking": 3,
        "timezone": "America/Halifax"
    },
    {
        "city": "Wilmot",
        "city_ascii": "Wilmot",
        "density": 77.9,
        "id": "1124001797",
        "lat": "43.4000",
        "lng": "-80.6500",
        "population": 20545.0,
        "postal": "N3A N0B",
        "province_id": "ON",
        "province_name": "Ontario",
        "ranking": 3,
        "timezone": "America/Toronto"
    },
    {
        "city": "Essex",
        "city_ascii": "Essex",
        "density": 73.5,
        "id": "1124628052",
        "lat": "42.0833",
        "lng": "-82.9000",
        "population": 20427.0,
        "postal": "N8M N0R",
        "province_id": "ON",
        "province_name": "Ontario",
        "ranking": 3,
        "timezone": "America/Toronto"
    },
    {
        "city": "Fort St. John",
        "city_ascii": "Fort St. John",
        "density": 820.2,
        "id": "1124517495",
        "lat": "56.2465",
        "lng": "-120.8476",
        "population": 20155.0,
        "postal": "V1J",
        "province_id": "BC",
        "province_name": "British Columbia",
        "ranking": 3,
        "timezone": "America/Dawson_Creek"
    },
    {
        "city": "Kirkland",
        "city_ascii": "Kirkland",
        "density": 2204.4,
        "id": "1124000941",
        "lat": "45.4500",
        "lng": "-73.8667",
        "population": 20151.0,
        "postal": "H9H H9J",
        "province_id": "QC",
        "province_name": "Quebec",
        "ranking": 2,
        "timezone": "America/Montreal"
    },
    {
        "city": "L'Assomption",
        "city_ascii": "L'Assomption",
        "density": 202.9,
        "id": "1124500862",
        "lat": "45.8333",
        "lng": "-73.4167",
        "population": 20065.0,
        "postal": "J5W",
        "province_id": "QC",
        "province_name": "Quebec",
        "ranking": 3,
        "timezone": "America/Montreal"
    },
    {
        "city": "Westmount",
        "city_ascii": "Westmount",
        "density": 4952.8,
        "id": "1124878078",
        "lat": "45.4833",
        "lng": "-73.6000",
        "population": 19931.0,
        "postal": "H3Z H3Y",
        "province_id": "QC",
        "province_name": "Quebec",
        "ranking": 2,
        "timezone": "America/Montreal"
    },
    {
        "city": "Saint-Lazare",
        "city_ascii": "Saint-Lazare",
        "density": 289.6,
        "id": "1124000613",
        "lat": "45.4000",
        "lng": "-74.1333",
        "population": 19889.0,
        "postal": "J7T",
        "province_id": "QC",
        "province_name": "Quebec",
        "ranking": 3,
        "timezone": "America/Montreal"
    },
    {
        "city": "Chestermere",
        "city_ascii": "Chestermere",
        "density": 603.8,
        "id": "1124000371",
        "lat": "51.0500",
        "lng": "-113.8225",
        "population": 19887.0,
        "postal": "T1X",
        "province_id": "AB",
        "province_name": "Alberta",
        "ranking": 3,
        "timezone": "America/Edmonton"
    },
    {
        "city": "Huntsville",
        "city_ascii": "Huntsville",
        "density": 27.9,
        "id": "1124961145",
        "lat": "45.3333",
        "lng": "-79.2167",
        "population": 19816.0,
        "postal": "P0B P1H",
        "province_id": "ON",
        "province_name": "Ontario",
        "ranking": 3,
        "timezone": "America/Toronto"
    },
    {
        "city": "Corner Brook",
        "city_ascii": "Corner Brook",
        "density": 133.6,
        "id": "1124244792",
        "lat": "48.9287",
        "lng": "-57.9260",
        "population": 19806.0,
        "postal": "A2H",
        "province_id": "NL",
        "province_name": "Newfoundland and Labrador",
        "ranking": 3,
        "timezone": "America/St_Johns"
    },
    {
        "city": "Riverview",
        "city_ascii": "Riverview",
        "density": 554.8,
        "id": "1124000112",
        "lat": "46.0613",
        "lng": "-64.8052",
        "population": 19667.0,
        "postal": "E1B",
        "province_id": "NB",
        "province_name": "New Brunswick",
        "ranking": 3,
        "timezone": "America/Moncton"
    },
    {
        "city": "Lloydminster",
        "city_ascii": "Lloydminster",
        "density": 817.3,
        "id": "1124000858",
        "lat": "53.2807",
        "lng": "-110.0350",
        "population": 19645.0,
        "postal": "T9V",
        "province_id": "AB",
        "province_name": "Alberta",
        "ranking": 3,
        "timezone": "America/Edmonton"
    },
    {
        "city": "Joliette",
        "city_ascii": "Joliette",
        "density": 860.3,
        "id": "1124841554",
        "lat": "46.0167",
        "lng": "-73.4500",
        "population": 19621.0,
        "postal": "J6E",
        "province_id": "QC",
        "province_name": "Quebec",
        "ranking": 3,
        "timezone": "America/Montreal"
    },
    {
        "city": "Yellowknife",
        "city_ascii": "Yellowknife",
        "density": 185.5,
        "id": "1124208917",
        "lat": "62.4709",
        "lng": "-114.4053",
        "population": 19569.0,
        "postal": "X1A",
        "province_id": "NT",
        "province_name": "Northwest Territories",
        "ranking": 3,
        "timezone": "America/Yellowknife"
    },
    {
        "city": "Squamish",
        "city_ascii": "Squamish",
        "density": 186.1,
        "id": "1124005958",
        "lat": "49.7017",
        "lng": "-123.1589",
        "population": 19512.0,
        "postal": "V0N V8B",
        "province_id": "BC",
        "province_name": "British Columbia",
        "ranking": 3,
        "timezone": "America/Vancouver"
    },
    {
        "city": "Mont-Royal",
        "city_ascii": "Mont-Royal",
        "density": 2545.3,
        "id": "1124001920",
        "lat": "45.5161",
        "lng": "-73.6431",
        "population": 19503.0,
        "postal": "H3R H3P H4P",
        "province_id": "QC",
        "province_name": "Quebec",
        "ranking": 2,
        "timezone": "America/Montreal"
    },
    {
        "city": "Rivière-du-Loup",
        "city_ascii": "Riviere-du-Loup",
        "density": 230.9,
        "id": "1124662123",
        "lat": "47.8333",
        "lng": "-69.5333",
        "population": 19447.0,
        "postal": "G5R",
        "province_id": "QC",
        "province_name": "Quebec",
        "ranking": 3,
        "timezone": "America/Montreal"
    },
    {
        "city": "Cobourg",
        "city_ascii": "Cobourg",
        "density": 869.3,
        "id": "1124831257",
        "lat": "43.9667",
        "lng": "-78.1667",
        "population": 19440.0,
        "postal": "K9A",
        "province_id": "ON",
        "province_name": "Ontario",
        "ranking": 3,
        "timezone": "America/Toronto"
    },
    {
        "city": "Cranbrook",
        "city_ascii": "Cranbrook",
        "density": 604.7,
        "id": "1124937794",
        "lat": "49.5097",
        "lng": "-115.7667",
        "population": 19259.0,
        "postal": "V1C",
        "province_id": "BC",
        "province_name": "British Columbia",
        "ranking": 3,
        "timezone": "America/Edmonton"
    },
    {
        "city": "Beaconsfield",
        "city_ascii": "Beaconsfield",
        "density": 1752.6,
        "id": "1124755118",
        "lat": "45.4333",
        "lng": "-73.8667",
        "population": 19115.0,
        "postal": "H9W",
        "province_id": "QC",
        "province_name": "Quebec",
        "ranking": 3,
        "timezone": "America/Montreal"
    },
    {
        "city": "Springwater",
        "city_ascii": "Springwater",
        "density": 35.5,
        "id": "1124001298",
        "lat": "44.4333",
        "lng": "-79.7333",
        "population": 19059.0,
        "postal": "L0L L4M",
        "province_id": "ON",
        "province_name": "Ontario",
        "ranking": 3,
        "timezone": "America/Toronto"
    },
    {
        "city": "Dorval",
        "city_ascii": "Dorval",
        "density": 839.2,
        "id": "1124933556",
        "lat": "45.4500",
        "lng": "-73.7500",
        "population": 18980.0,
        "postal": "H9P H9S",
        "province_id": "QC",
        "province_name": "Quebec",
        "ranking": 3,
        "timezone": "America/Montreal"
    },
    {
        "city": "Thorold",
        "city_ascii": "Thorold",
        "density": 226.5,
        "id": "1124718251",
        "lat": "43.1167",
        "lng": "-79.2000",
        "population": 18801.0,
        "postal": "L0S L2V L3B",
        "province_id": "ON",
        "province_name": "Ontario",
        "ranking": 3,
        "timezone": "America/Toronto"
    },
    {
        "city": "Camrose",
        "city_ascii": "Camrose",
        "density": 439.8,
        "id": "1124351657",
        "lat": "53.0167",
        "lng": "-112.8333",
        "population": 18742.0,
        "postal": "T4V",
        "province_id": "AB",
        "province_name": "Alberta",
        "ranking": 3,
        "timezone": "America/Edmonton"
    },
    {
        "city": "South Frontenac",
        "city_ascii": "South Frontenac",
        "density": 19.2,
        "id": "1124000063",
        "lat": "44.5081",
        "lng": "-76.4939",
        "population": 18646.0,
        "postal": "K0H",
        "province_id": "ON",
        "province_name": "Ontario",
        "ranking": 3,
        "timezone": "America/Toronto"
    },
    {
        "city": "Pitt Meadows",
        "city_ascii": "Pitt Meadows",
        "density": 214.7,
        "id": "1124786902",
        "lat": "49.2333",
        "lng": "-122.6833",
        "population": 18573.0,
        "postal": "V3Y",
        "province_id": "BC",
        "province_name": "British Columbia",
        "ranking": 3,
        "timezone": "America/Vancouver"
    },
    {
        "city": "Port Colborne",
        "city_ascii": "Port Colborne",
        "density": 150.1,
        "id": "1124274319",
        "lat": "42.8833",
        "lng": "-79.2500",
        "population": 18306.0,
        "postal": "L0S L3K",
        "province_id": "ON",
        "province_name": "Ontario",
        "ranking": 3,
        "timezone": "America/Toronto"
    },
    {
        "city": "Quispamsis",
        "city_ascii": "Quispamsis",
        "density": 318.9,
        "id": "1124000379",
        "lat": "45.4322",
        "lng": "-65.9462",
        "population": 18245.0,
        "postal": "E2S E2E E2G",
        "province_id": "NB",
        "province_name": "New Brunswick",
        "ranking": 3,
        "timezone": "America/Moncton"
    },
    {
        "city": "Mont-Saint-Hilaire",
        "city_ascii": "Mont-Saint-Hilaire",
        "density": 410.9,
        "id": "1124333461",
        "lat": "45.5622",
        "lng": "-73.1917",
        "population": 18200.0,
        "postal": "J3H",
        "province_id": "QC",
        "province_name": "Quebec",
        "ranking": 3,
        "timezone": "America/Montreal"
    },
    {
        "city": "Bathurst",
        "city_ascii": "Bathurst",
        "density": 129.3,
        "id": "1124816720",
        "lat": "47.6200",
        "lng": "-65.6500",
        "population": 18154.0,
        "postal": "E2A",
        "province_id": "NB",
        "province_name": "New Brunswick",
        "ranking": 3,
        "timezone": "America/Moncton"
    },
    {
        "city": "Saint-Augustin-de-Desmaures",
        "city_ascii": "Saint-Augustin-de-Desmaures",
        "density": 211.5,
        "id": "1124000358",
        "lat": "46.7333",
        "lng": "-71.4667",
        "population": 18141.0,
        "postal": "G3A",
        "province_id": "QC",
        "province_name": "Quebec",
        "ranking": 3,
        "timezone": "America/Montreal"
    },
    {
        "city": "Oak Bay",
        "city_ascii": "Oak Bay",
        "density": 1717.7,
        "id": "1124761730",
        "lat": "48.4264",
        "lng": "-123.3228",
        "population": 18094.0,
        "postal": "V8P V8S V8R",
        "province_id": "BC",
        "province_name": "British Columbia",
        "ranking": 3,
        "timezone": "America/Vancouver"
    },
    {
        "city": "Sainte-Marthe-sur-le-Lac",
        "city_ascii": "Sainte-Marthe-sur-le-Lac",
        "density": 2066.7,
        "id": "1124001153",
        "lat": "45.5300",
        "lng": "-73.9300",
        "population": 18074.0,
        "postal": "J0N",
        "province_id": "QC",
        "province_name": "Quebec",
        "ranking": 2,
        "timezone": "America/Montreal"
    },
    {
        "city": "Salmon Arm",
        "city_ascii": "Salmon Arm",
        "density": 144.0,
        "id": "1124478865",
        "lat": "50.7022",
        "lng": "-119.2722",
        "population": 17706.0,
        "postal": "V0E V1E",
        "province_id": "BC",
        "province_name": "British Columbia",
        "ranking": 3,
        "timezone": "America/Vancouver"
    },
    {
        "city": "Port Alberni",
        "city_ascii": "Port Alberni",
        "density": 894.6,
        "id": "1124952808",
        "lat": "49.2339",
        "lng": "-124.8050",
        "population": 17678.0,
        "postal": "V9Y",
        "province_id": "BC",
        "province_name": "British Columbia",
        "ranking": 3,
        "timezone": "America/Vancouver"
    },
    {
        "city": "Esquimalt",
        "city_ascii": "Esquimalt",
        "density": 2494.7,
        "id": "1124990218",
        "lat": "48.4306",
        "lng": "-123.4147",
        "population": 17655.0,
        "postal": "V9A",
        "province_id": "BC",
        "province_name": "British Columbia",
        "ranking": 2,
        "timezone": "America/Vancouver"
    },
    {
        "city": "Deux-Montagnes",
        "city_ascii": "Deux-Montagnes",
        "density": 2850.1,
        "id": "1124980214",
        "lat": "45.5333",
        "lng": "-73.8833",
        "population": 17553.0,
        "postal": "J7R",
        "province_id": "QC",
        "province_name": "Quebec",
        "ranking": 2,
        "timezone": "America/Montreal"
    },
    {
        "city": "Miramichi",
        "city_ascii": "Miramichi",
        "density": 97.7,
        "id": "1124714190",
        "lat": "47.0196",
        "lng": "-65.5072",
        "population": 17537.0,
        "postal": "E1V E1N",
        "province_id": "NB",
        "province_name": "New Brunswick",
        "ranking": 3,
        "timezone": "America/Moncton"
    },
    {
        "city": "Niagara-on-the-Lake",
        "city_ascii": "Niagara-on-the-Lake",
        "density": 131.8,
        "id": "1124366228",
        "lat": "43.2553",
        "lng": "-79.0717",
        "population": 17511.0,
        "postal": "L0S",
        "province_id": "ON",
        "province_name": "Ontario",
        "ranking": 3,
        "timezone": "America/Toronto"
    },
    {
        "city": "Saint-Lin--Laurentides",
        "city_ascii": "Saint-Lin--Laurentides",
        "density": 147.3,
        "id": "1124906585",
        "lat": "45.8500",
        "lng": "-73.7667",
        "population": 17463.0,
        "postal": "J5M",
        "province_id": "QC",
        "province_name": "Quebec",
        "ranking": 3,
        "timezone": "America/Montreal"
    },
    {
        "city": "Beaumont",
        "city_ascii": "Beaumont",
        "density": 1661.1,
        "id": "1124001210",
        "lat": "53.3572",
        "lng": "-113.4147",
        "population": 17396.0,
        "postal": "T4X",
        "province_id": "AB",
        "province_name": "Alberta",
        "ranking": 3,
        "timezone": "America/Edmonton"
    },
    {
        "city": "Middlesex Centre",
        "city_ascii": "Middlesex Centre",
        "density": 29.4,
        "id": "1124001841",
        "lat": "43.0500",
        "lng": "-81.4500",
        "population": 17262.0,
        "postal": "N6P N6H N0M N0L",
        "province_id": "ON",
        "province_name": "Ontario",
        "ranking": 3,
        "timezone": "America/Toronto"
    },
    {
        "city": "Inverness",
        "city_ascii": "Inverness",
        "density": 4.5,
        "id": "1124840965",
        "lat": "46.2000",
        "lng": "-61.1000",
        "population": 17235.0,
        "postal": "B0E",
        "province_id": "NS",
        "province_name": "Nova Scotia",
        "ranking": 3,
        "timezone": "America/Halifax"
    },
    {
        "city": "Stony Plain",
        "city_ascii": "Stony Plain",
        "density": 481.2,
        "id": "1124982081",
        "lat": "53.5264",
        "lng": "-114.0069",
        "population": 17189.0,
        "postal": "T7Z",
        "province_id": "AB",
        "province_name": "Alberta",
        "ranking": 3,
        "timezone": "America/Edmonton"
    },
    {
        "city": "Petawawa",
        "city_ascii": "Petawawa",
        "density": 103.1,
        "id": "1124206291",
        "lat": "45.9000",
        "lng": "-77.2833",
        "population": 17187.0,
        "postal": "K8H",
        "province_id": "ON",
        "province_name": "Ontario",
        "ranking": 3,
        "timezone": "America/Toronto"
    },
    {
        "city": "Pelham",
        "city_ascii": "Pelham",
        "density": 135.3,
        "id": "1124000042",
        "lat": "43.0333",
        "lng": "-79.3333",
        "population": 17110.0,
        "postal": "L0S",
        "province_id": "ON",
        "province_name": "Ontario",
        "ranking": 3,
        "timezone": "America/Toronto"
    },
    {
        "city": "Selwyn",
        "city_ascii": "Selwyn",
        "density": 54.0,
        "id": "1124000937",
        "lat": "44.4167",
        "lng": "-78.3333",
        "population": 17060.0,
        "postal": "K9J K9L K0L",
        "province_id": "ON",
        "province_name": "Ontario",
        "ranking": 3,
        "timezone": "America/Toronto"
    },
    {
        "city": "Loyalist",
        "city_ascii": "Loyalist",
        "density": 49.8,
        "id": "1124001145",
        "lat": "44.2500",
        "lng": "-76.7500",
        "population": 16971.0,
        "postal": "K7N K7R K0H",
        "province_id": "ON",
        "province_name": "Ontario",
        "ranking": 3,
        "timezone": "America/Toronto"
    },
    {
        "city": "Midland",
        "city_ascii": "Midland",
        "density": 477.3,
        "id": "1124104490",
        "lat": "44.7500",
        "lng": "-79.8833",
        "population": 16864.0,
        "postal": "L4R",
        "province_id": "ON",
        "province_name": "Ontario",
        "ranking": 3,
        "timezone": "America/Toronto"
    },
    {
        "city": "Colwood",
        "city_ascii": "Colwood",
        "density": 954.2,
        "id": "1124000395",
        "lat": "48.4236",
        "lng": "-123.4958",
        "population": 16859.0,
        "postal": "V9B V9C",
        "province_id": "BC",
        "province_name": "British Columbia",
        "ranking": 3,
        "timezone": "America/Vancouver"
    },
    {
        "city": "Central Saanich",
        "city_ascii": "Central Saanich",
        "density": 406.8,
        "id": "1124000519",
        "lat": "48.5142",
        "lng": "-123.3839",
        "population": 16814.0,
        "postal": "V8M",
        "province_id": "BC",
        "province_name": "British Columbia",
        "ranking": 3,
        "timezone": "America/Vancouver"
    },
    {
        "city": "Sainte-Catherine",
        "city_ascii": "Sainte-Catherine",
        "density": 1764.1,
        "id": "1124941451",
        "lat": "45.4000",
        "lng": "-73.5800",
        "population": 16762.0,
        "postal": "J5C",
        "province_id": "QC",
        "province_name": "Quebec",
        "ranking": 3,
        "timezone": "America/Montreal"
    },
    {
        "city": "Port Hope",
        "city_ascii": "Port Hope",
        "density": 60.1,
        "id": "1124105292",
        "lat": "43.9500",
        "lng": "-78.3000",
        "population": 16753.0,
        "postal": "L0A L1A",
        "province_id": "ON",
        "province_name": "Ontario",
        "ranking": 3,
        "timezone": "America/Toronto"
    },
    {
        "city": "L'Ancienne-Lorette",
        "city_ascii": "L'Ancienne-Lorette",
        "density": 2193.6,
        "id": "1124580674",
        "lat": "46.8000",
        "lng": "-71.3500",
        "population": 16745.0,
        "postal": "G2E",
        "province_id": "QC",
        "province_name": "Quebec",
        "ranking": 2,
        "timezone": "America/Montreal"
    },
    {
        "city": "Saint-Basile-le-Grand",
        "city_ascii": "Saint-Basile-le-Grand",
        "density": 463.6,
        "id": "1124000968",
        "lat": "45.5333",
        "lng": "-73.2833",
        "population": 16736.0,
        "postal": "J3N",
        "province_id": "QC",
        "province_name": "Quebec",
        "ranking": 3,
        "timezone": "America/Montreal"
    },
    {
        "city": "Swift Current",
        "city_ascii": "Swift Current",
        "density": 566.5,
        "id": "1124460875",
        "lat": "50.2881",
        "lng": "-107.7939",
        "population": 16604.0,
        "postal": "S9H",
        "province_id": "SK",
        "province_name": "Saskatchewan",
        "ranking": 3,
        "timezone": "America/Swift_Current"
    },
    {
        "city": "Edmundston",
        "city_ascii": "Edmundston",
        "density": 155.2,
        "id": "1124274233",
        "lat": "47.3765",
        "lng": "-68.3253",
        "population": 16580.0,
        "postal": "E7C E7B E3V",
        "province_id": "NB",
        "province_name": "New Brunswick",
        "ranking": 3,
        "timezone": "America/Moncton"
    },
    {
        "city": "Russell",
        "city_ascii": "Russell",
        "density": 83.0,
        "id": "1124982538",
        "lat": "45.2569",
        "lng": "-75.3583",
        "population": 16520.0,
        "postal": "K4R K0A",
        "province_id": "ON",
        "province_name": "Ontario",
        "ranking": 3,
        "timezone": "America/Toronto"
    },
    {
        "city": "North Grenville",
        "city_ascii": "North Grenville",
        "density": 46.7,
        "id": "1124000746",
        "lat": "44.9667",
        "lng": "-75.6500",
        "population": 16451.0,
        "postal": "K0G",
        "province_id": "ON",
        "province_name": "Ontario",
        "ranking": 3,
        "timezone": "America/Toronto"
    },
    {
        "city": "Yorkton",
        "city_ascii": "Yorkton",
        "density": 449.9,
        "id": "1124108820",
        "lat": "51.2139",
        "lng": "-102.4628",
        "population": 16343.0,
        "postal": "S3N",
        "province_id": "SK",
        "province_name": "Saskatchewan",
        "ranking": 3,
        "timezone": "America/Regina"
    },
    {
        "city": "Tracadie",
        "city_ascii": "Tracadie",
        "density": 31.2,
        "id": "1124362021",
        "lat": "47.5124",
        "lng": "-64.9101",
        "population": 16114.0,
        "postal": "E1X E9H",
        "province_id": "NB",
        "province_name": "New Brunswick",
        "ranking": 3,
        "timezone": "America/Moncton"
    },
    {
        "city": "Bracebridge",
        "city_ascii": "Bracebridge",
        "density": 25.5,
        "id": "1124793645",
        "lat": "45.0333",
        "lng": "-79.3000",
        "population": 16010.0,
        "postal": "P1L P1P",
        "province_id": "ON",
        "province_name": "Ontario",
        "ranking": 3,
        "timezone": "America/Toronto"
    },
    {
        "city": "Greater Napanee",
        "city_ascii": "Greater Napanee",
        "density": 34.5,
        "id": "1124001319",
        "lat": "44.2500",
        "lng": "-76.9500",
        "population": 15892.0,
        "postal": "K7R K0H K0K",
        "province_id": "ON",
        "province_name": "Ontario",
        "ranking": 3,
        "timezone": "America/Toronto"
    },
    {
        "city": "Tillsonburg",
        "city_ascii": "Tillsonburg",
        "density": 710.8,
        "id": "1124817746",
        "lat": "42.8667",
        "lng": "-80.7333",
        "population": 15872.0,
        "postal": "N4G",
        "province_id": "ON",
        "province_name": "Ontario",
        "ranking": 3,
        "timezone": "America/Toronto"
    },
    {
        "city": "Steinbach",
        "city_ascii": "Steinbach",
        "density": 618.6,
        "id": "1124152692",
        "lat": "49.5258",
        "lng": "-96.6839",
        "population": 15829.0,
        "postal": "R5G",
        "province_id": "MB",
        "province_name": "Manitoba",
        "ranking": 3,
        "timezone": "America/Winnipeg"
    },
    {
        "city": "Hanover",
        "city_ascii": "Hanover",
        "density": 21.2,
        "id": "1124001704",
        "lat": "49.4433",
        "lng": "-96.8492",
        "population": 15733.0,
        "postal": "R5G R0A",
        "province_id": "MB",
        "province_name": "Manitoba",
        "ranking": 3,
        "timezone": "America/Winnipeg"
    },